attribute_id,business_id,name,address,city,latitude,longitude,stars,review_count,opening_hours_id
ATR1,--gJkxbsiSIwsQKbiwm_Ng,Salon Lofts - West Kennedy,4545 W Kennedy Blvd,Tampa,27.9451223,-82.5210814,5.0,6,a75
ATR1,-hWqt93mXwiPUmS12suf6w,K&S Natural Nail & Spa,3321 W Gandy Blvd,Tampa,27.894041,-82.499752,4.5,62,a464
ATR1,0Sa2hQnbS9hoRthHKOGepg,The Nail Shoppe of S Tampa,4229 Henderson Blvd,Tampa,27.9262367,-82.514936,4.5,88,a47
ATR1,14wug4g_h4K-8zqxGIQ7gw,New Image Nail Spa,250 37th Ave N,Saint Petersburg,27.805725,-82.636324,4.0,43,a296
ATR1,16bxqGvRmT3yUdNdluuJXg,R Salon,"2454 N McMullen Booth Rd, Ste 403, Northwood Commons",Clearwater,28.010465,-82.708467,4.5,46,a270
ATR1,1uXrs6OJPzi2G6cxx5o32A,Idee Nails & Spa,"4011 Tampa Rd, Ste 13",Oldsmar,28.0375497,-82.6581056,4.5,7,a294
ATR1,3pxDvNe2bHkT5hEFssrfUA,Salon 427,4399 Commercial Way,Spring Hill,28.4949470606,-82.5987853158,4.0,44,a25
ATR1,5-9-1Ejn4Bf5N_RD0ppvzA,Bebe Nails & Spa,2140 Corporate Center Dr,Trinity,28.1899559473,-82.6264335515,3.0,25,a80
ATR1,5-Q_6MLNtoVt7u4fwuzcmw,D'amico Hair & Nail Lounge,1933 W Brandon Blvd,Brandon,27.9367681,-82.3157037,3.5,19,a91
ATR1,5B40GOi3vnWkrerGNpIyFA,Fonda Nails & Spa Studio,2421 Central Ave,St Petersburg,27.7712024886,-82.6662192866,4.5,56,a128
ATR1,5EJQLjYKZAXhrur_h1n47Q,Luxecares Nails & Spa,"9300 4th St N, Ste E",St. Petersburg,27.8570652,-82.6391304,4.5,297,a284
ATR1,5q-H6L0lU40A4kWvl6amig,Solar Nails & Spa,14455 N Dale Mabry Hwy,Tampa,28.0797457,-82.5060906,4.0,81,a167
ATR1,6OrXDINe8_u4UU1VetFiow,Image Nails,"5130 S Dale Mabry Hwy, Ste 112",Tampa,27.8906,-82.5059409,4.0,6,a125
ATR1,6XZESJv1rcBnSDNn6X86Uw,Prestige Natural Nail Bar,"209 N Meridian Ave, Unit 1",Tampa,27.948967,-82.448429,4.5,33,a77
ATR1,77ukyeEUObX--vB3BBp_6A,Dior Nails & Spa,"2223 N Westshore Blvd, Ste B254",Tampa,27.9656353,-82.5212659548,3.0,34,a21
ATR1,7EIozin9bIBL0T-gJiGI7Q,Nail Tips & Spa,"6801 Gulfport Blvd, Ste 11",South Pasadena,27.758434,-82.732834,4.0,11,a287
ATR1,7GByhnAZt6pcR2nSsYBWvQ,Nails Orchid,2280 4th St N,St. Petersburg,27.7924428671,-82.6391199231,3.5,36,a391
ATR1,7kebzhOtTMwX7wP3fGfgpw,The Red Room Salon,13445 County Line Rd,Spring Hill,28.4350927926,-82.4925626814,4.5,28,a279
ATR1,8Mkxq3JR4s7-K7AYQ7YWBw,Diva Nails and Spa,664 S Gulfview Blvd,Clearwater,27.966848,-82.8246148,3.0,33,a38
ATR1,9Ldo7ocJHVrEzRXUpN3Weg,Tampa Nails,2123 W Kennedy Blvd,Tampa,27.9451144124,-82.4818192601,2.5,121,a89
ATR1,9Rww8yE6Dm4dSMEq09nwXg,Holly Nails & Spa,9101 Belcher Rd,Pinellas Park,27.8553467494,-82.7363080904,4.5,16,a1
ATR1,AtfFqRVRD9w6bB5l4UyChg,AquaStone Nail Spa,2791 Gulf To Bay Blvd,Clearwater,27.9602673669,-82.7216805461,4.5,58,a51
ATR1,C9-AL6Cxfb7cJ3tQ07abzg,Crave Spa SOHO,708 S Howard Ave,Tampa,27.936576,-82.482755,3.0,162,a258
ATR1,EIy9vk7eeIpPHRjD1-PnNw,K's Luxury Nails,11108 Bloomingdale Ave,Riverview,27.8940307907,-82.3177493,4.5,110,a16
ATR1,E_jnzr_iuZGeUeP-5VMi2Q,Heavenly Nails,"1155 S Dale Mabry Hwy, Ste 18",Tampa,27.932721,-82.506595,4.0,633,a290
ATR1,EbBQI254WN0AoH-y21-gCA,Nouvelle Beauty Bar,"475 Central Ave, Ste 101",St. Petersburg,27.7714342,-82.6399459,4.0,172,a42
ATR1,FqTW9SXHTBt5F9tlvNG6Yw,Beach Hair Affair,421 Corey Ave,St. Pete Beach,27.7421607,-82.7503879,4.5,32,a361
ATR1,GP8aRgm2lbv7Hgv3pe2a-w,Nikkole Michaels' Salon & Spa,1397 Kass Circle,Spring Hill,28.4534386,-82.5926122,4.5,6,a105
ATR1,GZhMnIPBKwLtBgtvZ2_3BQ,Bangz Salon,4044 W Kennedy Blvd,Tampa,27.9444196,-82.511616,4.5,50,a185
ATR1,HOYYuo5ErA8guAtPfxFT1A,Paint Nail Bar -  St Pete,320 Central Ave,Saint Petersburg,27.771009,-82.6378521,4.5,53,a140
ATR1,HWgd0hxR37LWhsO2U22EBg,Poshe Day Spa & Nails,914 4th St N,Saint Petersburg,27.7815142,-82.638728,3.5,49,a277
ATR1,HtO3SPx1BiqDwDwd3_kd3w,Aacardi-The Salon,4046 Park St N,Saint Petersburg,27.8090223,-82.7548148,4.0,30,a243
ATR1,IgCwdvf8RTNUkcUhylBGBg,Manhattan Nails Salon,3511 S Manhattan Ave,Tampa,27.9110887,-82.5183204,4.0,134,a15
ATR1,Ikm8LPbDZlJd4wPk-kQezw,Poshe Nails,2141 Collier Pkwy,Land O Lakes,28.1883720151,-82.4382759624,3.5,64,a268
ATR1,JJt2xm-_1pIbtB6H8-f0Dw,Nail Art & Spa,3020 22nd Ave N,St. Petersburg,27.7915096,-82.6744819,4.0,326,a314
ATR1,KIjNyd57VtwQStcU5DhVmg,OrganiX Nail Salon,11135 Spring Hill Dr,Spring Hill,28.4622199,-82.5392775,3.5,12,a71
ATR1,LULmYza-tIDL4k41UHyCug,Salon Amoré by Cara Scott,30583 US 19 N,Palm Harbor,28.0510855,-82.7359996,4.5,14,a307
ATR1,N53TXBzvwtep-O1LTYrLVA,Violet Nails & Spa,10684 Gandy Blvd N,Saint Petersburg,27.8675212,-82.6227906,4.0,133,a149
ATR1,NjfHajT4G22xIINqpmNlXw,Rock Your Locks Hair Salon,904 Lithia Pinecrest Rd,Brandon,27.9245456239,-82.2726696078,4.5,93,a454
ATR1,NrNpYiY_fTXifmbhL5gKew,Amethia Nail & Spa,6820 E Fowler Ave,Temple Terrace,28.054929,-82.377512,3.5,58,a146
ATR1,PV_RWlP3SPTGbi0AucsHng,Beauty on Broadway Salon,300 Monroe St,Dunedin,28.013487,-82.78948,4.5,29,a226
ATR1,PVbkPTLHeAZfCp-nUTS-Ew,Luxecares Nails & Spa,1559 S Highland Ave,Clearwater,27.939808,-82.7739233,4.0,145,a102
ATR1,Q8Kno85J2thZH31KGb-Krg,Lilian's Nails Bar,16055 Tampa Palms Blvd W,Tampa,28.0999159366,-82.399724678,3.5,50,a93
ATR1,QzfP8iN3AarwBxUXPeRExQ,Oasis Salon Studio & Spa,12000 Indian Rocks Rd,Largo,27.8813174,-82.8332592,3.5,64,a342
ATR1,RXW3WsOBAkspYaJ96GRQUg,K Soho Salon,"715 S Howard Ave, Ste 100",Tampa,27.936284,-82.48319,4.5,42,a305
ATR1,RbzuOJPSnR4NnG1On36ULg,Polish'd Nail Bar,2511 W Swann Ave,Tampa,27.9377235,-82.4857498,4.5,48,a291
ATR1,RfBadspMiubpR0lDkVDdNA,Ermira’s Med Spa,3945 58th St N,Saint Petersburg,27.8075065,-82.7120671,4.5,11,a422
ATR1,TKfNGtriRJ5Azh8eNbFIkA,Shear Art Salon & Spa,13124 N Dale Mabry Hwy,Tampa,28.066501034,-82.50644546,4.0,31,a161
ATR1,TvcjDDA9WT4yErr53MLVKw,Essentials Spa & Salon,4301 4th St N,Saint Petersburg,27.8113779095,-82.6381657273,4.0,32,a228
ATR1,VoeI1ecQdnQd81MDIFNxLQ,Lavender Spa & Nails,"2398 Grand Cypress Dr, Ste 430",Lutz,28.191602,-82.392987,3.5,17,a236
ATR1,VsscoyR-OjQMKY2bNXJNYA,Plush Nails & Spa,1724 S Dale Mabry Hwy,Tampa,27.9277599,-82.505553,4.5,31,a67
ATR1,W4w89o1veJ7yhJKHs6Pdtg,Nail Art,7065 W Waters Ave,Tampa,28.0286609447,-82.559659159,2.5,44,a96
ATR1,WM7AXRA1BB6hVszoPvvkyQ,Cosmo Nail Bar,2915 West Bay Dr,Belleair Bluffs,27.9168045,-82.8182719,3.0,5,a74
ATR1,X2Z7ffuYrneF4z7HCue_NQ,Paris Nails Studio,9425 US Hwy 301,Riverview,27.8604792735,-82.3267341033,4.0,73,a415
ATR1,XUTboDILPqOYaEfR6yuPww,MY SALON Suite® of St. Petersburg,415 3rd St S,St. Petersburg,27.7668417,-82.6372086,4.5,6,
ATR1,Y36t15AiaL9ZPDHkD3zpoA,Admired Nails & Spa,"13002 Seminole Blvd, Ste 3",Largo,27.8914045475,-82.787819873,4.5,34,a218
ATR1,Yh4QJvWKUBSsI0S_zzFFfA,Nail Kingdom,1215 Bruce B Down Blvds,Wesley Chapel,28.17416,-82.355373,4.0,65,a192
ATR1,Z-RG-NA1iwcUkFuxShGooA,La Mirage Salon & Spa,3730 Tampa Rd,Palm Harbor,28.0636968,-82.7151135,3.5,50,a169
ATR1,bEWF81b1O9-U3GwkEbo49w,Ea McGill's Salon & Barbery,735 Broadway,Dunedin,28.0117234,-82.7896255,5.0,8,a444
ATR1,c3Cg--znjoEsTLBNkaEwaw,Nail-Tastic Organic Spa,5300 4th St N,Saint Petersburg,27.8206749,-82.6389084,4.5,75,a187
ATR1,cM6WfPo0bRr0QOceNoZEIQ,Sunshine Nails,"13847 Walsingham Rd, Ste H",Largo,27.881717,-82.831823,4.0,50,a192
ATR1,cNe2kv4OX-ciAAlDrT0nvA,S T Nails & Spa,"2300 Gulf Blvd, Ste 3",Indian Rocks Beach,27.9052031,-82.8475209,4.5,37,a19
ATR1,dHT6IdPnAbMvLEPNjoACLg,Garden Bay Nails & Spa,6754 22nd Ave N,Saint Petersburg,27.7913882,-82.7324199,4.5,118,a30
ATR1,etOBc91UiRijNM8f1zeJmg,Rapunzel's Salon & Spa,"1519 Gulf Blvd, Ste 6",Indian Rocks Beach,27.8986647,-82.8478654,4.5,15,a151
ATR1,fYFuwZRBCYdJ_lmU6WG9rQ,Forever Polished Nail Studio,2720 34th St N,Saint Petersburg,27.7962417,-82.6799774,4.5,10,a292
ATR1,fbEVK13G8dQlg4y23uxMGg,Whole Aveda Salon & Spa,"3687 Tampa Rd, Ste 206, Bay Arbor Place",Oldsmar,28.045372,-82.6815496,4.0,107,a429
ATR1,gWtfAb3VVOSApDXrlOg5Aw,Channelside Nail Salon,1208 E Kennedy Blvd,Tampa,27.950959,-82.4469831,3.5,155,a441
ATR1,hY_gLXsHXPEsr7EcWsvo1A,Serenity Salon & Spa,10109 Montague St,Tampa,28.0437408,-82.596977,4.5,108,a249
ATR1,jKH7pAblR2WnZcVeFNYqhw,Instyle Nails,33199 US Hwy 19 N,Palm Harbor,28.073936,-82.7372752,2.5,10,a231
ATR1,jKgmluD959CLD8sdmBuQ1g,E Nails & Tan,10589 Ulmerton Rd,Largo,27.8951271,-82.7856827,3.0,17,a112
ATR1,jZPE1ozYRmVQdIvp49L0gQ,Triple A Dominican Hair & Spa,4002 W Waters Ave,Tampa,28.0250004,-82.5092583,4.0,16,a397
ATR1,kDqSxNUWRaNR0sulKp7gPg,Volcano Nail Spa,7151 Seminole Blvd,Seminole,27.8369667,-82.786218,3.5,6,a93
ATR1,lOg1y6y350CdnfYlHJpHYg,Reinas Beauty Bar,"105 US Hwy 301 S, Ste 120",Tampa,27.9479684,-82.3545556,3.0,57,a430
ATR1,lgrDv-9XYWoTBuGByGshYw,Star Nails & Spa by Heather,"7620 Gunn Hwy, Ste 150",Tampa,28.0781803,-82.5713708,4.5,71,a47
ATR1,mkmalengTS0LarMm_ZiJ0w,AVEDA Hyde Park Village | Salon Norrell ,720 S Village Cir,Tampa,27.9361073,-82.475205,4.5,180,a395
ATR1,n5XX0M476XlmChBEHTPdZA,Top Nails and Spa,1620 Missouri Ave N,Largo,27.931805,-82.786895,4.5,56,a258
ATR1,o644e8y0gqcrjhX_l-HY8w,Tre Nail Lounge,11011 Countryway Blvd,Tampa,28.0608418,-82.6225448,5.0,66,a152
ATR1,riGn-RYqkWMUBtI5Qosoaw,Blo Blow Dry Bar,4102-2 W Boy Scout Blvd,Tampa,27.9654544,-82.5123617,4.5,96,a394
ATR1,sT2TMyWiTvHo2tAs0HENXw,Tranquility Wellness Spa,149 2nd St N,St. Petersburg,27.772576,-82.635388,4.0,51,a252
ATR1,u5k7hyTH9oUjNSFpfMkiQA,Spa 801,801 Tyrone Blvd N,Saint Petersburg,27.7801807,-82.7138148,5.0,28,a473
ATR1,uPoGBg74wu5szsOBzITRCg,NiNi Nails Salon,"10330 N Dale Mabry Hwy, Ste 130",Tampa,28.044209,-82.5054809,4.5,251,a93
ATR1,x5HmqZv7vv7AEInHOIaRyQ,Sweet Nail Spa,28658 Florida 54,Wesley Chapel,28.2380578,-82.3418319,4.0,27,a199
ATR1,xH1QWjvqeTnnY91PL2AIaw,Gypsy iBrows,8721 Little Rd,New Port Richey,28.2835716865,-82.6775249605,4.0,17,a349
ATR1,xH8XpThirOKC_sRmYSp9FQ,Venus Nail Lounge,2481 N McMullen Booth Rd,Clearwater,28.011201,-82.710176,4.0,20,a55
ATR1,yQ7kjXT2w_ISkQC2TMCzEg,Element 54 Salon,21776 FL-54,Lutz,28.1877312144,-82.4558124,4.5,17,a126
ATR1,yaqvJd1RUNGbRcsh4OqUuA,Glam Kitty Hair Studio,"9150 49th St N, Ste A",Pinellas Park,27.8550783,-82.7006429,4.5,15,a250
ATR1,zdHYuDA541CB205_EiRDLg,Tribeca Colorsalon,"1600 E 8th Ave, Ste A-137",Tampa,27.961113,-82.44139,4.5,356,a400
ATR2,-0qOecqGXEf_6TwaiX9E5A,Sharmaine's Salon & Day Spa,"483 Mandalay Ave, Ste 206",Clearwater Beach,27.9814984,-82.8267403,4.0,41,a98
ATR2,2GreXhwEXRLc673Mj_Vyjg,The Spa by Folashadé,"3818 Gunn Hwy, Ste 200",Tampa,28.036974,-82.5084124594,5.0,14,a57
ATR2,2gP6_NF9T4rQmcDgFESfBQ,Luxury Lotus Spa,"13542 N Florida Ave, Ste 212",Tampa,28.071849,-82.4598280484,4.5,10,a67
ATR2,9MHse2q2M69nNJeIGtAoEg,Pia Esthetics Day Spa,3210 W Bay To Bay Blvd,Tampa,27.9195796001,-82.4958075164,4.5,153,a142
ATR2,KLBZVKLBkF5OqVSnbBo5lQ,Gorgeous Nails & Spa,11632 N Dale Mabry Hwy,Tampa,28.0545694,-82.5048422,4.5,30,a114
ATR2,_ADJ8WRmfok-01lwYplybQ,Divine Designs Salon & Spa,1606 Oakfield Dr,Brandon,27.934469,-82.3100228,4.0,194,a82
ATR2,g194RQZ3Lwp9SOrJxGKXAw,Retro Salon and Nail Studios,8557 W Linebaugh Ave,Tampa,28.0421817,-82.5785926,4.0,11,a309
ATR3,-2slH9PUjJ9YK16b0hGxWg,Happy Nail and spa,17002 Palm Pointe Dr,Tampa,28.11769482,-82.3817151296,3.5,65,a317
ATR3,-P008_MriBRX7JjdMLAK7w,VIP Nails Studio,11343 Big Bend Rd,Riverview,27.7909196,-82.3169228,4.0,11,a210
ATR3,0MJvRl1WeW_fKjKDGF4Itw,EV Nail Art and Spa,1709 Main St,Dunedin,28.0180215,-82.7575666,4.5,10,a386
ATR3,3Hsb0S7keIjg956n-7Ckow,Frenchies Modern Nail Care - Tampa,"317 W Palm Ave, 105A",Tampa,27.96243,-82.46484,4.5,58,a408
ATR3,3Vu_bxaqbTwnzGju85R2Yg,Solar Nail,4970 Ridgemoor Blvd,Palm Harbor,28.0999181,-82.6912198,3.0,21,a137
ATR3,8_UPjFzaihKnjyTTesO7Hw,Legacy Nails & Spa,"3705 Tampa Rd, Ste 7",Oldsmar,28.0455759,-82.6779619,4.5,33,a457
ATR3,8pI6NhRCrxHUmJ8M_8T3uA,Brandon Hair Nails & Spa,652 Brandon Town Ctr Dr,Brandon,27.9303321,-82.325358,2.5,34,a377
ATR3,9yyd7GaPhPjhhXWq61y3IA,V Nails And Spa,4227 W Kennedy Blvd,Tampa,27.9451045,-82.5150606,4.0,18,a365
ATR3,AtdLdhClg_yhrjmkDTmcUQ,Beautiful Nails,10815 102nd Ave,Seminole,27.8795953021,-82.8020065503,2.5,18,a413
ATR3,Bi_kjzDgcNB9yobFM_QC4A,Encore Nails Bar,12355 FL-54 W,Odessa,28.1913650948,-82.6115739,3.0,12,a30
ATR3,Bvmf9glFc5H1Kxy1Lx4WhA,Harmony Nails & Spa,7807 9th St N,St Petersburg,27.8443251,-82.6461287,3.5,40,a231
ATR3,C_1c-7W00JC3IUAAcisLZw,Suncoast Nail Spa,"685 Main St, Unit B",Safety Harbor,27.9911654,-82.6940311,4.5,31,a154
ATR3,GlmLkbkOtdzTHnTFeWwxyA,Nails on Ninth - Natural Healthy Nails,3214 9th St N,Saint Petersburg,27.8015091,-82.6471204,5.0,50,a93
ATR3,GptIRsIFL3xq8YrDVOarXw,Ocean Blue Nail Spa,"17307 Gulf Blvd, Ste B",North Redington Beach,27.8220508,-82.8264036,4.5,12,a80
ATR3,HJQMHwCpLe0m1BeCTEbn3w,Sunshine Organic Nails Spa,7811 Temple Terrace Hwy,Tampa,28.032341,-82.3682648,4.0,18,a440
ATR3,LFXtVrxODMM88Pb6OOk7eg,Scarlett Ibis Nails & Spa,10036 Cross Creek Blvd,Tampa,28.143173,-82.3268125,3.0,18,a399
ATR3,NEqlF-UdizoKZ3SEwh5VEg,Envy Nail Bar,3321 Tampa Rd,Palm Harbor,28.0682374,-82.7238129,4.0,42,a30
ATR3,NuC8lNjQWJgSQ3y3iIdZwQ,Oasis Nails,"27607 State Rd 56, Unit 107",Wesley Chapel,28.186412,-82.359924,4.0,87,a14
ATR3,RvJdycyrP06vcTNr-byCTg,Grand Nails and Spa,"22299 State Road 54, Ste 108",Lutz,28.186557,-82.4479429,4.0,65,a79
ATR3,SA-lp8HJOh8km9sZJsJnfg,Classy Nails Of Tampa,3607 W Waters Ave,Tampa,28.0268677,-82.5019024,4.5,41,a271
ATR3,SfqFU9nSMgHvW_nYtBHXBQ,Vogue Nails and Spa,209 W Bloomingdale Ave,Brandon,27.8929987,-82.287871,4.0,11,a137
ATR3,T9kf1YuMNz6xrajRh7enyg,Noire The Nail Bar,4735 Gulf Blvd,St. Pete Beach,27.7220805652,-82.7402879117,4.5,44,a93
ATR3,UN1ZMropPN_Vo3gPMPGkXA,Wanderlust Nail Spa,1906 Gulf To Bay Blvd,Clearwater,27.9609017,-82.7579853,4.0,34,a362
ATR3,Vh6mWpkzFnV4g8monRCbNA,In-Fashion Nail & Massage,"6989 Seminole Blvd, Ste 3",Seminole,27.8354643,-82.7866602,4.5,8,a179
ATR3,YcBBSy0kX-KCtHrXo7WuQQ,Lavender Nail Bar,10380 Seminole Blvd,Largo,27.866889,-82.788151,4.0,42,a93
ATR3,aOz57yKwaphCmt8xoFCG5g,Cabelo Salon,10720 State Rd 54,New Port Richey,28.192072,-82.637419,4.0,22,a66
ATR3,aQopU26oKyD1mmDS7CZPtw,Lily Nails and Spa,875 E Klosterman Rd,Tarpon Springs,28.1239624979,-82.7419424027,4.0,13,a14
ATR3,cV6qQ58k6hPYci5n8jxX5Q,Bali Nail Spa,3969 Van Dyke Rd,Lutz,28.1279776,-82.5048267,4.5,51,a24
ATR3,eLNl3SVhnHDB_gRwHQVZVg,Angel Nails & Spa,13028 Race Track Rd,Tampa,28.070822,-82.632542,4.5,7,a14
ATR3,ezJI63Crog5fsWie1xzG6A,My Nails & Day Spa,6798 Park Blvd,Pinellas Park,27.8389149,-82.7325647,3.5,30,a384
ATR3,fRESw-gh5JWNDdovgTG05Q,pink and white nails bar,204 Oakfield Dr,Brandon,27.9345501,-82.2873749,4.5,10,a235
ATR3,gDi3oN7LsLFsEg7ayg2T6A,Love Angel Nails By TY,10791 Park Blvd,Seminole,27.8411625,-82.7883131,5.0,5,a100
ATR3,gZH68o3QrxiMFtGg2zVqgQ,HT Nails & Spa,18470 N US Hwy 41,Lutz,28.141959,-82.463964,4.0,40,a93
ATR3,jfUi8z_bi5Ih1MvG4MqL-w,Tips And Toes Nail Spa,28901 US Hwy 19 N,Clearwater,28.035449,-82.737615,4.0,21,a93
ATR3,jnSKRJkNs1F5a2wWDem6xg,Noire Nail Bar of Clearwater,25949 US Hwy 19 N,Clearwater,28.008442,-82.72982,3.5,42,a132
ATR3,kTjWrQIpVXMle5FTNlerWw,T&T Nails and Spa,1922 Oak Grove Blvd,Lutz,28.1845819,-82.4125522,4.5,14,a60
ATR3,mnYFBNgk6amFOi-Y5L5xig,Bijou Nails & Spa,3844 US 301 Hwy,Riverview,27.9138357965,-82.3471505595,4.0,39,a79
ATR3,o7S4SXloTfy8i7ESiJeNqw,Sun City Nails,4848 Sun City Center Blvd,Sun City Center,27.7139071,-82.3373422,3.5,25,a12
ATR3,oErQbBtEpyK3XmhmQNimFg,Chelsea Loves Salon,8501 Old Cr 54,New Port Richey,28.2174081,-82.6740787,4.0,9,a273
ATR3,rZFm1YslDSv-Uy2oZ41eIQ,Avalon Spa & Nails,"28347 Paseo Dr, Ste 100",Wesley Chapel,28.1886714,-82.346799,4.5,73,a171
ATR3,sZpCsqIbCfHr-CziYw-O1g,Strawberry Organic Nail & Spa,"2804 James L Redman Pkwy, Ste 105",Plant City,27.9848857,-82.1211006,4.0,44,a43
ATR3,tJuENHCYzFD9PqnrLRCnlg,LaPosh Salon,"2566 N McMullen Booth Rd, Ste D",Clearwater,28.0146708,-82.7100617,3.5,15,a360
ATR3,tS8yAIoKHKOdvDnvQDLMPw,Noire Nail Bar,17786 Aprile Dr,Lutz,28.195421,-82.5220717,3.0,31,a30
ATR3,udEMw0I9TF-yFyqLPcR4og,Victoria Nails,13727 N Dale Mabry Hwy,Tampa,28.070721,-82.505412,4.0,24,a172
ATR3,v1yoP9ALApAvRGQ07mSdWg,Crown Royal Nail Spa,6627 US Hwy 19,New Port Richey,28.254107,-82.728449,4.5,14,a320
ATR3,zm0SUU6PnnYgAO0Q2mLILA,Posh Nails & Spa,7737 W Hillsborough Ave,Tampa,27.9975182,-82.5682134,4.0,26,a304
ATR4,-9_F6sRmPdlbQ2n6n1whAg,Sun Nails,17627 Gunn Hwy,Odessa,28.127362,-82.574555,4.5,19,
ATR4,0K_sVYoJkjNJiqQPUR4OuQ,Tiffany Nail and Spa,2354 Tyrone Sq,Saint Petersburg,27.793985,-82.735475,2.0,41,
ATR4,1Bv7n9FpBmYF6cPN_ttobQ,The Bello Nails Bar,10025 N Dale Mabry Hwy,Tampa,28.0425050446,-82.5037400023,4.0,42,a38
ATR4,2Y-cy25mig7WM955KOcqMQ,LA Nails,11434 US-301,Riverview,27.834303092,-82.3265976472,2.0,62,a27
ATR4,3NY3Fg0TIpQlY38Y56cZXA,In Style Nails,"2655 E Bay Dr, Ste 3",Largo,27.916056836,-82.7595747855,4.0,6,a12
ATR4,4UkoDv3c2f6zZQkWapkGpQ,Excell Nails,793 Cortaro Dr,Sun City Center,27.714674,-82.370856,4.0,22,a22
ATR4,4Wwzk7wkTNZ8Gy0rekLPeQ,Lily,3944 W Hillsborough Ave,Tampa,27.9947519297,-82.5107493997,2.5,12,
ATR4,5UJvJ9L_eeGp0Z28hW4h4w,T-Nails,1057 S Pinellas Ave,Tarpon Springs,28.138086,-82.75545,4.5,20,
ATR4,5a-L0OU42JPK55h3oGowZQ,American Nails,223 Apollo Beach Blvd,Apollo Beach,27.770959,-82.39337,4.0,8,
ATR4,77AGvT1KkYZJtyr6egeiZg,TT Nails,9301 N 56th St,Temple Terrace,28.0342408,-82.3933612,3.0,19,a19
ATR4,7fWrs0xpexUnvWM1HmeTAw,J & J Nails,9203 Little Rd,New Port Richey,28.290791,-82.677099,3.0,15,a41
ATR4,7hGpL1Qv3Y3qYgJCP6UeEA,Classy Nails,9832 US Highway 301 S,Riverview,27.855643,-82.3250742,3.5,7,
ATR4,7oej-sB_s108ZAK1ATIAPg,B Nails and Hair,3314 W Kennedy Blvd,Tampa,27.9444467,-82.498143,1.5,6,a162
ATR4,81ar54e8Q-4KCyklM5HwQQ,Lithia Nail Design,3464 Lithia Pinecrest Rd,Valrico,27.8911957,-82.2429388,2.5,22,
ATR4,8231LyFApqIr480PKQR2cw,Bella Nails & Spa,26242 US Hwy 19 N,Clearwater,28.018614,-82.738147,2.5,5,a44
ATR4,8OZE7p7wlb_0ANEJvIPXdA,Nailport Express,9145 US Hwy 19,Pinellas Park,27.8547127567,-82.6932847663,4.0,7,a256
ATR4,90OogtpYzvIfHrBtgxgbIQ,D K Nail and Spa,12525 Spring Hill Dr,Spring Hill,28.4662818,-82.5140808,4.0,9,a100
ATR4,9auCaEUzg1-X4XcxI5l2sg,Artistic Nails & Spa,"1300 E Bay Dr, Ste A",Largo,27.917163,-82.773393,4.5,11,a137
ATR4,9fuSR8RN6E6T20DNVSqZ8g,Joy's Nails & Spa,"1701 S Alexander St, Ste 107",Plant City,27.9992145,-82.1386382,3.0,11,a288
ATR4,9g-lcizIhddq4L4iurt5qg,T D Nail and Spa,4707 W Gandy Blvd,Tampa Bay,27.8937422,-82.5251639,4.5,29,a80
ATR4,9hbShOYWAjjfl8bJy7n3pA,Eternal Nails & Spa,"2223 N W Shore Blvd, Ste 150C, International Plaza",Tampa,27.9744947,-82.5239807,2.0,31,a21
ATR4,9j1yT205wwkY7Mta2cldZw,Vi Nails & Spa,8544 Gunn Hwy,Odessa,28.086056103,-82.5806184514,4.0,12,a173
ATR4,A5_HplBv4jOunj9x5XcdLQ,Excellent Nails,35164 US Hwy 19 N,Palm Harbor,28.0923604,-82.7411875,4.0,24,a120
ATR4,AM8eRvo7QD0QJtca7PYuGQ,Noire The Nail Bar,6779 22nd Ave N,Saint Petersburg,27.7929754,-82.7311397,3.5,31,a213
ATR4,AMp2Bg1D_efzaAaSGa1qGw,Hot Nails,"7570 Starkey Rd, Ste G",Seminole,27.8404001,-82.7634715,4.5,14,
ATR4,At-3xbLHtlKsa2_vUHPlyw,Emmy Nails,23040 State Road 54,Lutz,28.1843429,-82.4348403,3.0,14,a99
ATR4,B72M5pQD7amzi3O7QehCTQ,Nails Magic,2031 E Fowler Ave,Tampa,28.0531916,-82.4366847,2.0,5,a412
ATR4,BcWx80K4i0LjIkH40o_Kkg,Expression Nails & Spa,8334 W Hillsborough Ave,Tampa,27.9965634,-82.5757703,3.0,12,a37
ATR4,BvIBYNiwfNLpNljbYNhOaw,Nail Experts & Spa,6166 N US Hwy 41,Apollo Beach,27.767261,-82.394773,2.5,15,
ATR4,ByWqHjSZGpa1KsS2sxrVzg,USA International Health and Beauty,12218 University Mall Ct,Tampa,28.0578614,-82.4346045,2.5,5,a121
ATR4,CSl_zI0e1WSlairJMhA_DA,La Lily Nails & Spa,4539 Gunn Hwy,Tampa,28.0499896,-82.5186984,3.5,42,a30
ATR4,EB2p_BSIqH44kcTKO2Qmag,Oasis Nails,8645 Little Rd,New Port Richey,28.283147983,-82.6778037,3.5,36,a19
ATR4,EBkd99JcwEL3y8_DXP9s5A,Trinity Nail Spa,10900 State Rd 54,New Port Richey,28.1914749884,-82.6346199972,3.0,12,
ATR4,EDODTmZbECNOErpUFgYk9Q,Heavenly Nails I,3222 Little Rd,Trinity,28.204841,-82.662792,4.0,16,a7
ATR4,F6DcTegtx9sVdIuEsP_nsA,Lovely Nails,3014 54th Ave S,Saint Petersburg,27.718099034,-82.6733366912,2.5,19,
ATR4,F9JekMhlbgeUSF-a57CMPw,The Nail Spot,"3225 S Macdill Ave, Ste 105",Tampa,27.916353,-82.494361,4.5,23,a41
ATR4,FNfsHMhIMzygO_S90EDxcQ,Nails Diamond,52 Commercial Way,Spring Hill,28.4351019323,-82.6391219348,4.5,10,a22
ATR4,FOxFX-x1RBMw--JqMvVMNw,Premier Nail Source,5454 W Crenshaw St,Tampa,28.0149023,-82.5382641,2.0,12,
ATR4,FgcHp40DPeXlJ0jPZKMuXw,Nail Spa,141 E Bloomingdale Ave,Brandon,27.8935756,-82.2844844,3.5,21,a54
ATR4,G5IPYoL-c0mZYVx62OlVqQ,Nail Envy,"3665 E Bay Dr, Ste 240",Largo,27.9150364,-82.7491266,3.0,9,a148
ATR4,GZsgQBg7AiFnD0W5hWF2ig,Nail Extreme,2474 W Brandon Blvd,Brandon,27.942378,-82.32341,2.0,25,a30
ATR4,HEIi9lYs-cXWg99ph90lUA,Goddess Nails,"2663 Gulf To Bay Blvd, Ste 940",Clearwater,27.9576471,-82.727026,3.5,70,
ATR4,Hq5yQVThsPKPvtY-kUKgdA,Happy Nail Spa,3475 4th St N,Saint Petersburg,27.8036818314,-82.6380978196,2.5,20,a22
ATR4,ITArphz6LYBkall0VZYVKw,City Nails,"2525 E Hillsborough Ave, Ste 143",Tampa,27.995016,-82.432141,1.5,7,a17
ATR4,J5poTVR4Uqma0_-Iq0oGdQ,Levy's Beauty Salon,601 S US Highway 41,Ruskin,27.7140848,-82.4344462,3.5,5,
ATR4,KN8xrxTa4R31xgSRShAiBA,Cathy Nails,10855 Cross Creek Blvd,Tampa,28.1433071736,-82.291866373,3.5,11,a289
ATR4,Ka81lwF4YBxyjcmt9kVEgA,Fashion Nails,6074 Van Dyke Rd,Lutz,28.1277535,-82.5418089,3.5,13,
ATR4,Kc_IvXtGDPmHjJifS-CuOA,Unique Nails Spa,4865 Park St N,St Petersburg,27.8160056,-82.75383,4.5,8,a38
ATR4,LD2EdAmSAV32NornQKtXHA,Lilys Nails,"1000 West Waters Ave, Ste 5",Tampa,28.0250143,-82.4692418,3.0,5,a313
ATR4,LZpNMp9BG1hXljvxOVoH8Q,Express Nail,"8414 N Armenia Ave, Ste A",Tampa,28.026677,-82.4854565,4.0,10,
ATR4,LmvUb2AxgEX3oUNhKEpr_g,Adore Nails,1716 US Hwy 19,Holiday,28.183983,-82.739164,3.0,5,
ATR4,Lpr5jNtrXgrRtWg3YGlcjA,Aria Nail Bar,11221 Causeway Blvd,Brandon,27.92127,-82.324778,3.5,74,a193
ATR4,M2cFZdPrLhhjwi7Ojrm48Q,Tranzitions Hair Salon,14388 N Dale Mabry Hwy,Tampa,28.078425,-82.507637,4.0,17,a227
ATR4,MG7Edp3cK0wSVAuCx_43bw,Family Nail and Spa,6431 E County Line Rd,Tampa,28.1693636,-82.3552373,4.0,60,a30
ATR4,MIpB_MNDNmtB61hu3yFqVQ,Diva Nail & Spa,6432 N US Hwy 41,Apollo Beach,27.771034,-82.3921498,2.5,24,
ATR4,MOX7i2dQMS_ZrsJhQ6-0QQ,Crystal Nail,1116 62nd Ave N,Saint Petersburg,27.8280436,-82.6498845,4.5,17,a40
ATR4,MWvkorNu6WKVgB5FGWVSRw,Hong Kong Nail Salon,3809 S Manhattan Ave,Tampa,27.9081121,-82.5183723,3.0,8,a85
ATR4,NGRq-fhraWVDYpAs7nw-RQ,Hair Obsessions,5713 Richey Dr,Port Richey,28.2804598584,-82.7191463113,4.0,13,a319
ATR4,NHVQ8bMFx_vMRGIoA7ihBg,Nails 4 U,7646 Park Blvd,Pinellas Park,27.838765,-82.743755,4.0,9,
ATR4,NR7QEeAQ18xbttfspsvgjQ,NV Salon & Spa,13107 US Hwy 301,Riverview,27.7954747,-82.3353881,3.5,6,a214
ATR4,OeGGbMsZOTvETxb_QYkitg,Elegant Nails,1227 Kingsway Rd,Brandon,27.9572168,-82.277541,3.0,10,a160
ATR4,POP18lPv7MPLVzqv8olHYQ,Beautiful Nails,11750 Dr Mlk Jr Blvd,Seffner,27.983848,-82.2998408,2.5,18,
ATR4,Pud543MVxRoVCl3JFQgq9w,Princess Nails,535 S Fort Harrison Ave,Clearwater,27.9599281,-82.7998009,3.5,42,a41
ATR4,R8cdeX_NLeCk7IGsGSX3fQ,Unique Hair & Nail,15321 Amberly Dr,Tampa,28.0891088,-82.4042489,3.5,5,
ATR4,RUfcsQ6xhNPabPH_LBBx1w,A&H Nails,136 Mariner Blvd,Spring Hill,28.4349413,-82.5465361,3.5,10,a47
ATR4,SpQmiJDDWmKSgFDReklMTg,Red Nails,4379 Commercial Way,Spring Hill,28.4947237,-82.5992589,2.0,14,
ATR4,Tgln0v-WiPH8HkuJeJZUqA,Divine Nails,4717 Normandy Dr,Tampa,27.9882501,-82.5712045,4.0,5,a18
ATR4,U3Lk8KJAa_XKeMfDiHRXNA,Blue J Nails,166 N Parsons Ave,Brandon,27.9397459508,-82.286116659,4.0,20,a26
ATR4,UvZh_Uo3tpZslkUDauzbGQ,Evelyn Nails & Spa,3851 Us 301,Riverview,27.913548,-82.3485134,2.5,13,a370
ATR4,Vt7D_WF5d_O5nsDjGbvNKQ,Sunray Nails & Spa,23694 US Hwy 19N,Clearwater,27.9900173142,-82.7325168122,3.5,11,a30
ATR4,WARb17HevgrkmZDDRXRhGw,Badar's Hair & All,1820 Bruce B Downs Blvd,Wesley Chapel,28.1837851,-82.3508685,4.0,71,a11
ATR4,WCyZZFwDzlrWLQmW8djGxw,J P Nails & Spa,5425 Little Rd,New Port Richey,28.236799,-82.671201,2.5,14,
ATR4,WV-hIke5LpEwsfGdt4im2w,Pretty Nails & Spa,3328 Henderson Blvd,Tampa,27.9402539,-82.4989081,4.0,9,a30
ATR4,X7b6WMsGnNZVKHGYc06k_g,Organic Nail Dip and Spa,10280 Causeway Blvd,Tampa,27.9231264551,-82.3391951542,4.0,65,a79
ATR4,XpqVXAjugptitM3UBM9H-w,Orchid Nails and Spa,1155 S Pinellas Ave,Tarpon Springs,28.136734,-82.7570215,4.0,18,a177
ATR4,XtpONLUnaKtArxQRS7pZAQ,Nail VIP,16305 N Florida Ave,Lutz,28.1023831,-82.4601128,4.0,5,a38
ATR4,XzuxMWIznHHLVTL7BFQg9Q,Serenity Nail Spa,11108 Bloomingdale Ave,Riverview,27.8940017,-82.3177493,2.5,12,a79
ATR4,Y5RYLWn7n6OWrIfm-0K8Kg,Kim's Salon,"2705 54th Ave N, Ste 7",St Petersburg,27.821566,-82.670257,3.0,13,a451
ATR4,YMzgbe6DJ_40oSv6_gNLQw,Toppers Salon,6919 State Rd 54,New Port Richey,28.2175714,-82.6998236,4.5,8,a115
ATR4,ZP0QFkDEMQXk2GablA2J8w,Davi Nails by Panda Nails,11110 Causeway Blvd,Brandon,27.9254356344,-82.3254139411,3.0,5,a30
ATR4,ZwUMmI8s0Gc4tuQ4nIB_Zw,Cali Pronails,4909 US Hwy 19,Port Richey,28.2933083411,-82.7142972634,2.5,6,a407
ATR4,ZzGyTZiOkR758C_7bcPekg,King's Nails,"210 S Kings Ave, Ste F",Brandon,27.9346188,-82.294432,3.0,30,
ATR4,amoL0QcieJknBBDoozjuxA,Wink Beauty Bar,3854 W Waters Ave,Tampa,28.024367,-82.507426,4.0,22,a155
ATR4,bYmCTwHuyb8CK_hNM913Ow,Creative Nails & Spa,782 W Dr Martin Luther King Jr Blvd,Seffner,27.9803072,-82.2884755,2.0,13,a30
ATR4,beFy7nfTCpHfGIgYTuTSFQ,Best Nails,1055 Bruce B Downs Blvd,Wesley Chapel,28.1718,-82.3547170349,4.0,37,
ATR4,cVyknd5MHhqKvGwayRHzog,Mystical Nails,"10500 Ulmerton Rd, Ste 280",Largo,27.898262902,-82.756116709,2.0,18,a22
ATR4,dfv1W93sHaNKAuY2XOufVQ,Asian Nails,"6804 N Armenia Ave, Ste 10",Tampa,28.009505,-82.484787,2.0,5,a19
ATR4,eJUhNCIJkslALOpOaadjxA,Magical Nails,4419 N Armenia Ave,Tampa,27.981911,-82.484244,4.0,14,a154
ATR4,e_uHgy2e1rJu7xkl61yapw,Famous Nails,14924 N Dale Mabry Hwy,Tampa,28.0854916,-82.5062475,3.5,14,a303
ATR4,efb8XanM-A07tkelq6p2TQ,Cali ProNail,"27001 US Hwy 19 N, Ste 1002",Clearwater,28.017394,-82.73507,2.5,52,a335
ATR4,f2EryWpek9OFWrkR_jXQAQ,Foxy Nails & Spa,2126 W Brandon Blvd,Brandon,27.9384829,-82.3193927,4.0,13,a51
ATR4,fo-zheAQd7LEBfAKJriLww,Bella Nails & Spa,2263 E Bearss Ave,Tampa,28.0802061,-82.4333749,3.0,12,a164
ATR4,g-YhAgXduF_tz38u-lQlWA,LL Nails,13740 Little Rd,Hudson,28.357198,-82.664875,2.0,14,a54
ATR4,g0RT2BzVy7-J-KHvF1ahGA,Nail Studio,6630 Hanley Rd,Tampa,28.007800062,-82.5630072586,2.5,8,a51
ATR4,hhB6SG75iRreNo0ZiJZOBw,Le's Nails,"1530 Mc.Mullen Booth Rd, Unit D11",Clearwater,27.9807404,-82.7111926,2.5,19,a38
ATR4,hwP_TyJWuOXbswzuqu6bVQ,Q Luu Nails,2513 State Road 60 E,Valrico,27.9366936,-82.2435072,2.5,7,
ATR4,iGnsEZ_gzZlfKFXmfyyLBQ,Elegant Nail Spa,10949 Causeway Blvd,Brandon,27.9222458,-82.3290097,2.5,40,a239
ATR4,isy_HOPqVWyiRvQoLXlXXw,Jenny's Nails,455 45th Ave S,Saint Petersburg,27.7280561,-82.6389801,2.5,9,
ATR4,jpIUquM3eHfiuy2IiwvVeg,Lee's Nails,5003 Gulfport Blvd S,Gulfport,27.749331,-82.70084,3.0,7,
ATR4,kC7N8f2NwoqL21xqaj6iKQ,Nail Country & Tan Spa,1700 Bruce B Downs Blvd,Wesley Chapel,28.182439329,-82.3521825156,2.5,101,
ATR4,kbnDjeXlq9Yi4d8Lz1YcaQ,Cosmo Nail Spa,4146 Mariner Blvd,Spring Hill,28.491003,-82.540504,3.5,19,a118
ATR4,kc4Clr5Nq7vuzmWHlITbRQ,Angel Nail and Spa,32773 Eiland Blvd,Wesley Chapel,28.22199,-82.248654,3.0,32,
ATR4,kpwd7oPk52gQZ_Ni8aj-Kw,K & T Salon,10754 70th Ave,Seminole,27.8354795313,-82.7880287915,4.0,7,a46
ATR4,lF5MnWhSWQ1cBN9T7-iDOg,Nature Nails,7901 N Armenia Ave,Tampa,28.020144,-82.484028,4.0,8,
ATR4,lROi3RtwE97SSYn6wRGOsw,Tina's Nail Art,4941 E Busch Blvd,Tampa,28.0321173653,-82.4032796547,2.5,8,
ATR4,mFbMQL4s9fhnNRigkroJ1A,T & T Nail Salon,2562 E Fowler Ave,Tampa,28.0551121,-82.4298133,1.5,7,
ATR4,mLfL9TlIgsJ3bfQYRsWZ4A,Nations Nail Salon,4473 W Gandy Blvd,Tampa,27.894084,-82.520808,3.5,7,a263
ATR4,mQA2t-a03tmQ5qhqRa39TA,Legend Nail Salon,7655 State Rd 54,New Port Richey,28.2176432,-82.6873572,2.5,5,
ATR4,macNVhkE6uZOXM-Wtt5bBA,Nicholas Nails II,2151 Mariner Blvd,Spring Hill,28.463886,-82.541654,2.5,6,
ATR4,my0bmPD5dgDFE1ia__LNlw,Nails & Beauty Lounge,953 E Brandon Blvd,Brandon,27.9371659,-82.2699586,3.5,84,a2
ATR4,mzDiq3PKYqQBV2pdXLAjFw,Daba Nails & Waxing,"4644 W Gandy Blvd, Ste 6",Tampa,27.89424,-82.524468,4.5,15,
ATR4,o0YYqB_hn2jJxyzZ-6dvvQ,I-venus Nail Spa,6896 US Hwy19 N,Pinellas Park,27.8340327,-82.6811887,4.0,8,a30
ATR4,oLUopPGK25ty8bNPaDaTLQ,Lili Nails,8614 Citrus Park Dr,Tampa,28.0649311,-82.5806857,3.5,17,
ATR4,pPap7XF_3luhKhIaUPuZ2w,Cosmo Nail Bar,9042 Progress Blvd,Riverview,27.900319654,-82.3557390574,3.0,36,a236
ATR4,pUp1DmCcx28qE71Kgn-QiA,Fantastic Nails & Spa,3439 Lithia Pinecrest Rd,Valrico,27.892526,-82.241968,3.0,20,a268
ATR4,phhhWAJiNCVeTMJPNoR8Bw,Noire Nail Bar,10195 Bay Pines Blvd,Saint Petersburg,27.814391,-82.7801528,4.0,45,a22
ATR4,qM7_jNcuhPuRmbgWYjRBEA,102 Nails,6455 102nd Ave N,Pinellas Park,27.8653486,-82.7262587,4.0,5,a19
ATR4,qT9VpKHy7meFeidwXsN1sA,Bella Nail Spa,5039 US Hwy 19,New Port Richey,28.2331791239,-82.7299660255,3.5,12,
ATR4,rFhmVbheWejlkkX7WqzIAw,Anew Dawn A Complete Salon Experience,11219 Spring Hill Dr,Spring Hill,28.4621292,-82.537142,5.0,5,a151
ATR4,rugMei20nwoL-Qi-mpuxVA,Pink & White Nail,7650 66th St N,Pinellas Park,27.8415258,-82.7286554,3.0,20,a35
ATR4,sAiNnCX2wNBAbS06NfUQfw,Allure's Nails Spa,19263 Dale Mabry Hwy,Lutz,28.158757,-82.4818951,3.5,8,a38
ATR4,sHJ--t6ttHs8Y8ohAfAi1A,New York Nails,"10019 N Dale Mabry Hwy, Ste 200",Tampa,28.041797,-82.503503,3.5,6,
ATR4,sY6eWKPH7gpqG58HP0DGEA,Star Nails,6539 Park Blvd,Pinellas Park,27.8394476,-82.7271308,3.5,5,
ATR4,uPy7arTGvzSxkD5jZV3SbA,Island Nails,10875 Gulf Blvd,Treasure Island,27.770588,-82.770174,4.0,21,a55
ATR4,uYNjeZ5UvIHvXZ0ABuXF0g,Emmy's Hair &  Nails Salon,5995 Gulf Winds Dr,St. Pete Beach,27.733292138,-82.7449017,3.5,13,
ATR4,u_JHcxT-k9su-Qyw3mT1eQ,Crystal Nails,3022 College Ave E,Ruskin,27.714585,-82.393335,4.0,11,a19
ATR4,ujs-Jr5Jx2vv9y3GpTe2Jw,Zara Nail Lounge,23679 Sr 54,Lutz,28.1862073,-82.4242423,3.5,32,a183
ATR4,vR-9g1yX8Jy-mdeuOkSwjw,Beauty Nails,7233 State Rd 54,New Port Richey,28.2171936,-82.6948049,3.5,7,
ATR4,vSihXpDft3dXbZRbDa1AmQ,Love Nails,7327 Spring Hill Dr,Spring Hill,28.4518136,-82.5960394,3.5,14,
ATR4,vaZ7jc7NMb7me_QlwtdCRg,Citrus Nails & Day Spa,2706 W Hillsborough Ave,Tampa,27.994702,-82.486957,1.5,22,
ATR4,vc-ptXFM-vMYnwMwZhm47g,Julissa Blow Dry Bar,"14100 US Hwy 19 N, Ste 111",Clearwater,27.8998797112,-82.7284254134,5.0,7,a88
ATR4,veO2CMB-VpFJPwF_kXVkqA,Salon Tua Nails & Spa,11200 E Martin Luther King Blvd,Seffner,27.982076,-82.309997,1.0,5,
ATR4,vhW6JmZqkLohRPK_iPDi4Q,Fashion Nail,1408 Dale Mabry Hwy,Lutz,28.178226,-82.469628,4.0,17,
ATR4,vnR7xIHTh2sh55cqJNVFEw,AJ's Nail Spa,2005 E Hillsborough Ave,Tampa,27.99562,-82.436028,2.5,16,a12
ATR4,vvnbAFb-aY1ykHdq9oMB_w,Elite Nails,2552 E Bearss Ave,Tampa,28.053371,-82.395311,3.0,11,a34
ATR4,wIX0p3ZfPinVJtg-yYgrlQ,Nail Country,919 E Bloomingdale Ave,Tampa,27.8909030932,-82.2720408251,3.0,19,a95
ATR4,wcXB9JhsNQ3eSjF5VltbiQ,Heavenly Nails,8811 Mitchell Blvd,Trinity,28.1881947053,-82.6691707904,3.0,18,a54
ATR4,wcppVzRVOFwZp3-Qdwb_TQ,Rituals Aveda Salon,2760 Gulf To Bay Blvd,Clearwater,27.961201,-82.72336,4.5,18,a5
ATR4,wehtVVR1JBJn7siLT3vfpA,L.A nails,11070 Spring Hill Dr,Spring Hill,28.4600917,-82.5415483,4.0,10,
ATR4,xUEerHiQik4vAzD0bJaIeg,Natural Nails Art,11737 N Dale Mabry Hwy,Tampa,28.0552764,-82.5035906,5.0,7,a51
ATR4,xYrqQVUm90Hgsey6gTNEZQ,Montage Nails Spa,812 N US Hwy 41,Ruskin,27.7259451,-82.4342837,3.5,19,a60
ATR4,y8-pJyJQ_BO2GJrWowaiyA,Tran Nails,5774 54th Ave N,Kenneth City,27.8207626,-82.711804,3.5,11,
ATR4,yIkNTIbj4V2g-KwU3MwnIg,Nails At New Tampa,6270 Commerce Palms Dr,Tampa,28.1169488813,-82.3742418734,4.0,86,a30
ATR4,yPWDGL7PN-T9QWqcJdK1Lg,Noire The Nail Bar,478 Poinsettia Ave,Clearwater,27.9815375,-82.8263581,4.0,62,a38
ATR4,yk8BDiK6tBcg_rLJtyKWKg,Nova Nails Spa,4723 66th St N,Kenneth City,27.8145555352,-82.7269943834,5.0,5,a30
ATR4,ymBzrzkIxb-JNTi5ulNWqQ,Venus Nail Bar - Wesley Chapel,28842 State Rd 54,Wesley Chapel,28.238618,-82.33894599999999,3.5,21,a223
ATR4,zVDtKWArVQnESSsbrgmVCw,Nails On Nails,13538 University Plaza St,Tampa,28.070853,-82.4297921,2.5,7,a241
ATR4,zqz0tXwhe6TJDXFg0Nz5nQ,Queen Nails,6860 Gulf Blvd,Saint Pete Beach,27.737869,-82.749053,4.5,28,
ATR5,-LoqS47uKarX-tn5PXgWYQ,Midori Organic Salon,"1033 W Bay Dr, Ste A-B",Largo,27.9163785,-82.799883,3.5,17,a143
ATR5,8MmDiZPK4IB33PaE7cKL9A,Creative Nails II,1383 Main St,Dunedin,28.0189567,-82.7683594,4.0,63,a195
ATR5,CbBqxZmkvEqwV1EFEexITw,Pearl Salon,477 N Ashley Dr,Tampa,27.9477181859,-82.4596638945,4.0,150,a145
ATR5,DybtxtUevHQwGsBJlJC-aw,Royal Palace Nail Spa,"3018 W Kennedy Blvd, Ste B",Tampa,27.9445707053,-82.4918889,3.5,117,a154
ATR5,IEKokM_amGcbgVvyOoZKuQ,Nail Shop,6756 Memorial Hwy,Tampa,27.9958199,-82.5830096197,4.5,146,a180
ATR5,L31zFOiZys2x8Pp8jZGgpA,Aqua Stone Nails And Spa,411 S Belcher Rd,Clearwater,27.9615753911,-82.7455472737,4.0,153,a225
ATR5,M-aAUfhmoUjkg24bhx7iIQ,T & L Nails Kennedy,1506 W Kennedy Blvd,Tampa Bay,27.9443468798,-82.4750649,4.5,5,a419
ATR5,S1Tu64bLEmg4aoYAUKKhUA,Carrollwood Nails,3821 Northdale Blvd,Tampa,28.0938714,-82.5037629,3.5,25,a286
ATR5,TpIhYxu_bwkj0JbEmEPg5g,Envy Nail,4039 W Kennedy Blvd,Tampa,27.945302,-82.5111844,4.5,72,a47
ATR5,UPeyyZ4p8Gshl5OUYbN88w,Swank & Co.,618 Oakfield Dr,Brandon,27.9346529,-82.292378,4.0,19,a423
ATR5,UrNrdA4BruhPF3ym8bh36Q,Havana Club Barbershop,"4410 W Hillsborough Ave, Ste L",Tampa,27.995226,-82.5194376,4.0,5,a206
ATR5,WxN1ZfVlZfkWk6WNLRUlJQ,Prima Salon and Spa,11681 Boyette Rd,Riverview,27.8534178773,-82.3028963059,3.5,6,a403
ATR5,YZxax_JxJhRNiuGRzpTZKA,In Style Nails,6102 S MacDill Ave,Tampa,27.879846,-82.4936063,4.0,29,a366
ATR5,amwlIN_keXCgw3gTvb4Mhg,Diamond Nails,1222 E Fowler Ave,Tampa,28.0550058,-82.4456643,3.5,14,a114
ATR5,cbTfQMiKtS7BTby81VJ8Bg,A&M Clearwater Nails & Spa,810 S Fort Harrison Ave,Clearwater,27.9567873,-82.8001562,4.5,12,a18
ATR5,lcfD0VSjMxHYBnH-a4-w0g,Le Reve Nails & Spa,8549 Gunn Hwy,Odessa,28.089289,-82.578679,5.0,18,a269
ATR5,qST239voJrcu7xxeF1r9cA,Blossom Nail Spa,9612 US Hwy 301 S,Riverview,27.8595717,-82.3251844,4.0,109,a426
ATR5,qjobr-kG28RLtmLd4W5SvA,J. Joseph Salon,13541 State Rd 54,Odessa,28.195244,-82.59188,4.5,14,a449
ATR5,uCTNQAoc5LmYOC3569nboQ,balance salon spa,2832 E Bearss Ave,Tampa,28.08061,-82.427834,4.5,49,a50
ATR5,xZfs3QHJVMU4wpsBRHQOjg,Valrico Nails & Spa,"1903 State Road Hwy 60 E, Ste B",Valrico,27.9376159,-82.2552627,3.0,28,a112
ATR5,zeFGWtQ9IUtGlgaqo_hMEQ,The Oakhouse Day Spa,8850 4th St N,Saint Petersburg,27.8532039,-82.6391701,4.5,11,a357
ATR6,-ONBja1I0ePL7-yxCefYSg,Nails And Spa Supercenter,3912 S Dale Mabry Hwy,Tampa,27.9056694399,-82.5039699975,2.5,29,a455
ATR6,-me2TMhLLOX-k16rh6RKiw,Nails On Nails,12134 US Hwy 19,Hudson,28.333807,-82.698131,4.5,17,a337
ATR6,12puMeoG4Y2OS0Zeh_4Vug,"Regal Nails, Salon & Spa",14941 N Dale Mabry Hwy,Tampa,28.08606,-82.5026,3.0,5,a289
ATR6,1Lb2CM1M744Or-AzgUx9hg,Forum Nails & Spa,"2532 SR-580, Ste H",Clearwater,28.020248,-82.732103,3.5,38,a38
ATR6,1vWMof26DwxLgDoRyCzGOg,Blue Water Nails,8611 Regency Park Blvd,Port Richey,28.281938,-82.6976366,3.0,28,a443
ATR6,1z99pivXhZNFbg-vXwHwag,Ocean Nails and Spa,30603 US Hwy 19 N,Palm Harbor,28.0512801,-82.7361319,3.5,20,a76
ATR6,2KHS8Vuao5QZhs2YUE3b5g,Shiny Nails,3218 S Dale Mabry Hwy,Tampa,27.9158335,-82.5057816,4.0,7,
ATR6,2RJ1z-vNFnmeuWjkN3u3bg,Kc Nails,12031 Indian Rocks Rd,Largo,27.8829904,-82.8318823,4.5,78,
ATR6,2oGdZKyLD_jmQucCWGTKFQ,California Nails,14176 US Hwy 19,Hudson,28.363299,-82.692366,3.5,9,a190
ATR6,33GLey6kOV78YW-49741Bg,Blades Of Style Salon & Spa,"1810 S Pinellas Ave, Ste D",Tarpon Springs,28.1265179,-82.7598496,4.0,5,a203
ATR6,3hbgSQXmvLBvttxwfAasng,Luv Nails,"5625 4th St N, Ste 3",Saint Petersburg,27.8236221,-82.6382577,3.5,6,a74
ATR6,4L4jIsbks0OpjnDOs1Ac-w,Nail Trap & Day Spa,7062 US Highway 19 N,Pinellas Park,27.836408,-82.683385,2.5,25,
ATR6,4iPxzZ3FaTus6HFTdCOY-w,Royal Nail & Spa,10932 Cross Creek Blvd,Tampa,28.145557,-82.283108,3.5,23,
ATR6,4wBv2DoycwLZwbb7xaqs0Q,Lee Nails Spa,607 Brandon Town Center Mall,Brandon,27.931001,-82.325045,2.0,48,a21
ATR6,5P_sxZLjPQsLDIYyQqCe6w,Nail So Happy,1119 62nd Ave N,Saint Petersburg,27.8285394,-82.6494474,1.5,12,
ATR6,5bBOx1qYorqrEhcGhS2MXg,Pro Nails,"5383 Ehrlich Rd, Ste 104",Tampa,28.084213,-82.543153,3.0,21,
ATR6,5mj_pYHFTx8utLMluynUXA,Pinky Nail & Spa,"1300 34th St N, Ste C",Saint Petersburg,27.8185373,-82.6753466,3.5,10,a331
ATR6,6-XiYrhugp5xsx9Ofm82xw,Mystic Nail & Spa,7441 US Hwy 301 S,Riverview,27.8747978697,-82.3272431067,4.5,15,
ATR6,68wvtpgTEU_vaz0X3nBDxA,Fola Nails & Spa,1318 Tampa Rd,Palm Harbor,28.0671637711,-82.7634094954,3.5,20,a22
ATR6,6ZPW6VkgEYYb-DA5J0byrg,Solar Nail & Spa,"3240 Lithia Pinecrest Rd, Ste 102",Valrico,27.89479,-82.246819,3.0,20,a197
ATR6,7teMVlWdNuAQY7TKQJNASg,Katie's Nails & Spa,11240 W Hillsborough Ave,Tampa,28.0096006,-82.6097558,4.0,43,a30
ATR6,8UDUCZcdrAL43UaaQWHQ6w,Busy Nails,11220 Dr Mlk Jr Blvd E,Seffner,27.9831695,-82.3090335,2.5,22,
ATR6,91j8b2vjlHPy4EyvjRa5UA,Mia's Beauty,"8350 N Armenia Ave, Ste A",Tampa,28.025137,-82.484682,2.0,16,a316
ATR6,9NGdhURHVcGeiG0-HDmESg,Joy's Nails,905 Sr 60,Brandon,27.936692,-82.270246,3.5,5,
ATR6,9UjYdjEcC0PyFzn-TQo72w,One World Nail Salon,4227 W Kennedy Blvd,Tampa,27.945135,-82.515001,3.5,10,a217
ATR6,9aNLFdTxR7TSUv8P4DxAKQ,Day Spa At Citrus,8101 Citrus Park Town Center Mall,Tampa,28.0688489,-82.5749557,2.5,27,a278
ATR6,AQyFTJbysel45QpqefYHcw,Luxurious Nail and Spa,"25809 US Highway 19 N, Ste 1100",Clearwater,28.0065103,-82.7285236,3.5,9,a27
ATR6,BAtCVjDsP7nTX_9VJAoqpw,Perfect Nails,"3101 State Rd 580, Suite C",Safety Harbor,28.023283,-82.708267,4.0,29,a93
ATR6,CflUbh-nhJnpo8Uodr84dQ,Nail Dior Lounge,12540 State Rd 54,Odessa,28.1895901162,-82.6083265595,3.0,58,a27
ATR6,CiFX18q6bfw5_Ob6MtMmkw,Adorable Nails & Spa,"2710 Alt 19, Ste 103",Palm Harbor,28.093003,-82.771916,4.0,43,a135
ATR6,E669D1OgPC0-nrAsyB3Rag,TNL Nails & Spa,10500 Ulmerton Rd,Largo,27.891724,-82.782986,3.5,28,
ATR6,FxOrCFtUytkNKxpJ0hTHRA,Classy Nails,863 Lithia Pinecrest Rd,Brandon,27.9247819693,-82.2709678136,4.0,17,a43
ATR6,G7xigIA_0qQdRT-PkUMJQg,Ultimate Nails & Spa,3730 Park Blvd,Pinellas Park,27.838831,-82.6849684,2.5,27,
ATR6,H0RtPGBB6PmFBVZrtUA-7A,Sophia Nails,2916 Himes Ave,Tampa,27.9660007275,-82.5016618658,3.5,53,a127
ATR6,H7EZm2DQ13sbJngV51ATig,Creative Nails,2032 Badlands Dr,Brandon,27.92701,-82.315544,3.0,48,a79
ATR6,HMv0ZijqCzqwlUZjGJYqnA,LG Nails & Spa,"5020 E Bay Dr, Ste 700",Clearwater,27.917885,-82.734256,3.5,50,a27
ATR6,HkrsfVZxYoT2avLV6LuHjw,K-Nails and Spa,9656 W Linebaugh Ave,Tampa,28.0431627,-82.5929444,4.0,48,
ATR6,ItEJOdUrfKy18pprV-TyYw,Happy Nails and Spa,35575 US Hwy 19 N,Palm Harbor,28.09538,-82.738014,3.0,44,a20
ATR6,JJ4FoYSND3PWqaYQ1Czt_g,Gel Nails,5811 S Dale Mabry Hwy,Tampa,27.8826313,-82.5070159,4.0,16,a248
ATR6,KZW_CVB-8pmIGYX_UVmsqQ,Couture Nail Lounge,8402 Little Rd,New Port Richey,28.2792151,-82.674735,4.0,28,a41
ATR6,KxXYyjxgRPMy1kdxDDKAoA,Sun Nails,10829 Bloomingdale Ave,Riverview,27.8920495,-82.3208671,3.0,16,
ATR6,L1XOLV4ij_xWVn-2bp1rQw,Nail P & P II,2852 West Bay Dr,Belleair Bluffs,27.9163876,-82.8181337,3.5,16,a74
ATR6,LNcfd-D47Kj9vYfC3cK9Lg,Concept Nails & Day Spa,2693 Roosevelt Blvd,Clearwater,27.9161568,-82.7257084,3.5,19,
ATR6,LgJMQdAOPm_1dlZ7fHJunQ,Pink and White Nails,10661 Big Bend Rd,Riverview,27.790399,-82.33307,2.5,42,
ATR6,MdG2pnK6qZ28VUqwVwn8Hw,VIP Nails Spa,938 W Lumsden Rd,Brandon,27.9239666186,-82.2989635342,2.5,40,a447
ATR6,MoR1pFBnxZeO-A890hsfOw,CNT Nails & Spa,"1309 S Collins St, Ste 303",Plant City,28.0033728,-82.1215171,4.5,5,a405
ATR6,NHk1bisMcSLko6hkblGk3g,Top Nails,9666 US Hwy 19,Port Richey,28.219445,-82.736941,2.5,12,
ATR6,OWTp39QigYY8r_aG04MLwg,Red Nail,1515 Main St,Dunedin,28.018939,-82.762153,4.5,34,a19
ATR6,OWVVJBd-_PfPFaiWwCygXw,Natural Nail & Spa,396 150th Way,Madeira Beach,27.8035646725,-82.7986262994,4.5,15,a38
ATR6,Pv6j9JC0d_7v85Z7TkIiFw,First Nails,14418  N Dale Mabry Hwy,Tampa,28.079131,-82.508079,4.0,14,a2
ATR6,Pxq6lxGwnhMcz_QidyxpIA,First Tip Nails,"5319 Ehrlich Rd, Ste 107",Tampa,28.0842461754,-82.5406697858,4.5,12,a54
ATR6,Qbx8RhVbuYQfd-UufnXr8g,Nail Me Good,3026 Central Ave,St Petersburg,27.7709686418,-82.6744047382,4.0,5,a431
ATR6,Sz5Gv-wehJpOQNH1u47hkg,Rehab Salon & Spa,37542 Us Hwy 19 N,Palm Harbor,28.1132724604,-82.7407119423,4.5,6,a263
ATR6,UwBWnOJN88X8KrnGx6uJfw,Sassi Nails & Spa,2909 James L Redman Pkwy,Plant City,27.9824557,-82.1223159,3.0,13,a452
ATR6,WCK9AntXvsOppysIZ-oLeA,Got Nails,41274 US Hwy 19 N,Tarpon Springs,28.1482582,-82.7430691,3.5,23,a51
ATR6,WNsCwkl1WGz1Getz3kZojg,Maddy Spa,5332 Gulfport Blvd S,Gulfport,27.7482012003,-82.706463514,4.5,34,a212
ATR6,WiuI1gooeRu56OB5rY9GAw,Nail Spa,"27001 US Hwy 19 N, Ste 2038",Clearwater,28.017052,-82.732033,2.5,20,a358
ATR6,WvrVI5Qub_qfgC3A5SFCfg,Le Belle Day Spa,11208 4th St N,Saint Petersburg,27.8738798,-82.6389367,3.5,72,a263
ATR6,X0po3hlZm1zA5r5_A7_I8g,Julie's Nails & Spa II,10801 Starkey Rd,Seminole,27.8699899,-82.7601136,2.5,14,a345
ATR6,X1rviqiHyXL4rw6Bn4KsaQ,Be Nails & Spa,"17503 Preserve Walk Ln, Ste D",Tampa,28.1280482,-82.3694399,4.0,45,a30
ATR6,XG0pTbdjYz53AqkXjCDkPw,Jojo's Nail Design & Spa,"10312 Bloomingdale Ave, Ste 114",Riverview,27.89461,-82.33041,2.0,15,
ATR6,Y7155Nrd-F_nVWErKX9NIg,Soho Nail Spa,625 S Fort Harrison Ave,Clearwater,27.9591259,-82.7998224,3.5,30,a22
ATR6,YMWwwyVCuU5LcjeEkEV1dg,Sassy Nails & Spa,3215 S MacDill Ave,Tampa,27.9172286,-82.4940887412,4.0,35,a22
ATR6,aDcLGfNHzJu2HEozDclqWw,Natalie Day Spa,6901 22nd Ave N,Saint Petersburg,27.7930124,-82.7336645,3.0,36,a340
ATR6,aXBIlSFu-5bBEMNZmwMD2g,ZZ Styling Salon,"10353 Cross Creek Blvd, Ste B",Tampa,28.1446537477,-82.3122813846,4.5,6,a7
ATR6,bpGhMp9tuiGQCeQKNXlWEw,Pink & White Nails & Serenity Spa,12914 N Dale Mabry,Tampa,28.064058,-82.50562,4.0,138,a12
ATR6,doN40fPIewGN88ga4HZSEA,Textures Hair and Beauty,"1701 S Alexander St, Ste 109",Plant City,27.999273,-82.138605,4.0,5,a315
ATR6,f3Xhbknnhh0jjoKP-I0X9Q,Sunshine Nails,"4445 E Bay Dr, Ste 310",Clearwater,27.915499,-82.7410569,3.0,6,a79
ATR6,gYPHD6axGVglsbuUcPFb5w,Botanical Nails Bar and Spa,"2519 N McMullen Booth Rd, Ste 104",Safety Harbor,28.0139233,-82.7077635,3.5,10,a30
ATR6,h_zrt5_R8ORA8oJn66uCOw,Nancy's Nails,32538 Us Hwy 19 N,Palm Harbor,28.0686195,-82.7390599,3.5,6,a256
ATR6,hzry_2pw53_GkjJFsMzo0Q,Diamond Nails and Spa,"3800 Tampa Rd, Ste 160",Oldsmar,28.0420037,-82.6746125,4.0,15,a19
ATR6,iBkhPuvFOVwagIsdgXo7yw,VS Nails & Spa,"23388 State Rd 54, Ste 105",Lutz,28.1853797,-82.4293582,4.0,31,a27
ATR6,iffqq6hDurlDWKQThZm5uA,Nails On Nails,1215 Bruce B Downs Blvd,Wesley Chapel,28.173577,-82.3537832,2.5,7,
ATR6,itGjLkOstlt5xWAxISlAsg,Happy Nails,2320 S Parsons Ave,Seffner,27.9746128,-82.2855295,3.0,12,a204
ATR6,jmk0b8HZot9h8q6Y12PvNg,Number One Nail Salon,8462 Seminole Blvd,Seminole,27.849197,-82.787362,4.5,23,a18
ATR6,kM2OVIcH4CwpWtGDIvBssQ,K & S Nails,19060 Bruce B Downs Blvd,Tampa,28.146121,-82.354574,3.0,13,
ATR6,kMSUZlaMze8GEqwiohYFBA,Kingdom Nails,"10065 E Adamo Dr, Ste B",Tampa,27.9421659,-82.3377288,3.5,25,a30
ATR6,kNCbrDQ6T2FgC5zjkye30A,Seaside Day Spa,"27001 US Hwy 19 N, Ste 1120",Clearwater,28.016758,-82.734806,3.0,30,
ATR6,kTLsBLzK0Pr-QDyQSj2h1w,Spar 1 Nails,1255 Wendy Ct,Spring Hill,28.4525457,-82.6330018,4.0,32,a60
ATR6,kp4FGzyFvsG3aDKFN7kGIw,Maxim Nail Design & Spa,683 Alderman Rd,Palm Harbor,28.094930897,-82.7719920705,4.0,7,
ATR6,mUkkLhmjiQJ5VXZaDEGaLg,Cnd Nails And Spa,18087 Highwoods Preserve Pkwy,Tampa,28.1314908896,-82.3676850147,4.0,49,a30
ATR6,oeA0KXqdWwbBJc5FUFLazQ,Fancy Nails,4038 W Kennedy Blvd,Tampa,27.9444992,-82.5114082,4.0,120,a54
ATR6,ofG-B4hIzJq_qidBrfyZhw,Star Nail,"8802 Rocky Creek Dr, Ste 103Twn",Tampa,27.9961834,-82.583873,4.0,9,
ATR6,ojAkmjXt3r5wjNxPoZ-NZQ,Divine Spa and Nails,6212 54th Ave N,Kenneth City,27.8205469178,-82.7209417599,4.5,11,a51
ATR6,oygIpX7j3_yaxtNmvmTFYA,Motion Nails,18425 N US Highway 41,Lutz,28.140729,-82.461169,3.5,16,a281
ATR6,pSFiOUTMtyoSBpZ_T13rUA,Alyssa's Salon,7330 Gulf Blvd,St. Petersburg,27.7409793,-82.7510295,4.5,15,
ATR6,pjHGf-44XrJDW31j_EOmbg,Famous Nails & Spa,7824 Land O Lakes Blvd,Land O Lakes,28.2711726,-82.4807045,3.5,32,a418
ATR6,rppcrq79Tz0mmUw7_mWgoA,Nail Gallery,322 W Hillsborough Ave,Tampa,27.9958681,-82.463916,4.5,8,a94
ATR6,s0REu37pzbDnzKpTyW2Xyw,Botanique Nails and Spa,11073 Spring Hill Dr,Spring Hill,28.4621271,-82.5414427,4.0,14,a255
ATR6,tFdGVOO3pVloOU9Wz0Ybvg,Hot Tip Nail,8472 Sheldon Rd,Tampa,28.0273521,-82.5840332,3.5,37,a453
ATR6,tH5iprojwzyheG05S4pA4A,Rosy Nails,13352 Lincoln Rd,Riverview,27.7902942438,-82.3426230294,3.5,7,
ATR6,tcCjpEEGxXf46vyNNb8rKg,Lala Nail & Spa,5719 Gunn Hyw,Tampa,28.0631642,-82.5426435,3.0,11,a164
ATR6,thvK2OYrjTJnjSrBAnay3w,Venus Nails & Spa,5905 4th St N,St Petersburg,27.8255471,-82.6380757,3.5,64,a30
ATR6,tw5TspU0WqEJ0GSLgRy3ww,Pink & White Nails Salon & Spa of Clearwater,2518 N McMullen Booth Rd,Clearwater,28.013192,-82.7092251,3.5,22,a30
ATR6,uYEiDDgyOBuW1ZC1RBhRyQ,Lotus Nails and Spa,3513 Bell Shoals Rd,Valrico,27.8906665575,-82.2683739521,3.5,21,a84
ATR6,u_UgvuCGeUjWfEZxBS8DzQ,The Loft Hair and Nail Lounge,709 W Lumsden Rd,Brandon,27.9231216,-82.2957371,4.5,10,a324
ATR6,wseTiH0RiWXM-tuwx-TiEw,Signal Nails,5660 Fishhawk Crossing Blvd,Lithia,27.8531131,-82.2068419,2.5,23,
ATR6,xX66v8dVyQ4JdGgPWEDufA,Asia Nails,6714 Central Ave,Saint Petersburg,27.7705546,-82.7304737,4.5,5,a18
ATR6,xZ-maqa1PlWb_qYNQGbttg,Trinity Nails & Spa,"220 W Brandon Blvd, Ste 102",Brandon,27.954474,-82.296117,5.0,10,a232
ATR6,xaiOUSSSf9rbYz_4e6dIcg,Nail Trap & Spa,15005 N Dale Mabry Hwy,Tampa,28.088481,-82.502561,2.0,32,a12
ATR6,xbaEMSf9gytgqmoBk_UUkg,Super Nails of Brandon,1262 E Brandon Blvd,Brandon,27.9383159,-82.2635665,2.0,14,a295
ATR6,xllyo5KDwC7AAmb1Anprdg,Mimi Nails & Spa,1918 State Rd 60 E,Valrico,27.9391678,-82.2561955,3.0,52,a311
ATR6,y_G0xkomswVQaejYp4Fy4g,Venus Nail Spa,11639 Boyette Rd,Riverview,27.852375,-82.304945,3.5,35,a27
ATR6,ylcYpTe4YJFf6ytDyZq7rg,Pretty Nails,2570 Sunset Point Rd,Clearwater,27.990844,-82.731091,4.0,12,a381
ATR6,zaHqyz8NTTMRvaJFvabu1g,Marco Nail & Spa,262 Harbor Village Ln,Ruskin,27.7520907,-82.4120206,3.0,18,a346
ATR6,zhUFx2fd7S0DxKSQJ2J4SA,Lux Nails & Wax,3851 US 301,Riverview,27.913546,-82.349813,3.0,46,a30
ATR7,-Uez8TfwFgsht-h8E5cH6A,Good Nails & Spa,209 W Bloomingdale Ave,Brandon,27.8929987,-82.287871,3.0,14,a137
ATR7,-Um8zHmAF3T20C7aKCjndg,Nail Holics Spa,6427 US Hwy 301 S,Riverview,27.8873117,-82.3312424,3.5,16,a30
ATR7,-ch3ET0QStiKPWo1Vy68eA,Dreams Nail Salon,"6821 W Hillsborough Ave, Ste 5",Tampa,27.9970915,-82.5556319,4.0,62,a287
ATR7,-jX7VpT9VJ5KnyawzzBUsw,Island Nails & Spa Salon,290 Windward Passage,Clearwater Beach,27.977641324,-82.8172916815,4.0,10,a36
ATR7,1yKCB5hF0G6uBoyiMo6OyQ,Leann's Nails,21 Dr Martin Luther King Jr S St,Saint Petersburg,27.7705263,-82.6468142,4.5,36,a60
ATR7,2d2JsoZNuyG7T56F1JLjNw,Studio 7 Salon,12153 W Linebaugh Ave,Tampa,28.0570181,-82.625338,5.0,7,a468
ATR7,2jK36fVSvBx5p_qjfXd11Q,K Nails & Spa,3617 W Gandy Blvd,Tampa,27.8945686891,-82.5038095766,3.5,47,a199
ATR7,2nPOx7eizejhX-iVb0kGTw,Your Nails And Spa,2651 Ulmerton Rd,Clearwater,27.8939836,-82.6694755,4.0,69,a221
ATR7,3UJua2ZWEtHiBkAkUBFGCA,New York Nail,272 3rd St S,Saint Petersburg,27.768727,-82.635892,3.5,33,a334
ATR7,4rkFzPUFBGP8M_1-40NQPQ,Nail Fever,"2223 N West Shore Blvd, Ste 254B",Tampa,27.9642714878,-82.5191903206,2.0,18,a21
ATR7,4yE9Jon2vRbLn4T2abC6Fw,Royal Palms Natural Nail Spa,2601 4th St N,Saint Petersburg,27.7959056,-82.6382462,4.0,81,a30
ATR7,5iUoTMPe68uNKa-FZR2KZg,Solar Nails & Spa,5056 4th St N,Saint Petersburg,27.818643,-82.6391622,3.5,35,a372
ATR7,6Rqu7vBzP67ML-yqfFUnwg,Classic Nails,"3838 W Neptune St, Ste D3",Tampa,27.9295973067,-82.5076478995,4.0,39,a231
ATR7,6UOp1MHRyDB1vwBWYC61og,Venus Nails & Day Spa,1558 N Dale Mabry Hwy,Tampa,27.9568650573,-82.5056109577,3.5,149,a38
ATR7,6qW0qp_Hd1Z-ix95dxy2bw,Lotus Nails & Spa,1959 34th St N,St. Petersburg,27.7899793535,-82.6793389767,3.5,8,a38
ATR7,7e_KHdnAy5wwyHbCwvG8cQ,Nail Image & Tan,2784 E Fowler Ave,Tampa,28.0556155,-82.4274852,3.0,28,a29
ATR7,7m6eMVvrMx1DKiXxocYaNg,Heaven Nails & Spa,"5132 Land O Lakes Blvd, Ste 108",Land O Lakes,28.232546,-82.458244,4.0,15,a13
ATR7,9JjAeFO8u1ZQWWN43iXg4w,Sunflower Beauty Salon,8098 Citrus Park Town Center Mall,Tampa,28.0676324,-82.5756074,4.0,19,a335
ATR7,CBTfBDC5NB7iXSfbFlrcTQ,Clearwater Beach Nails & Spa,780 S Gulfview Blvd,Clearwater,27.9664057,-82.8226258,4.5,55,a263
ATR7,D9rvtljz6XRdt5PFDkvNGg,Paradise Nail and Spa,30602 US Hwy 19 N,Palm Harbor,28.050662,-82.7394368,4.0,34,a79
ATR7,DXnonn36Ug-YP9-xE4oIeA,Ambiance Salon & Spa,Pavillion Crossing Plz,Riverview,27.9133179,-82.3484738,3.5,11,a8
ATR7,JYIxuoVSIt50jfcWWs8fNg,My's Nails & Spa,23610 State Rd 54,Lutz,28.1858608979,-82.4261119589,3.5,23,a60
ATR7,KNVA1iBKBZARzdA9SasgDA,Unique Nails and Spa,11673 W Hillsborough Ave,Tampa,28.017189,-82.614714,3.5,42,a110
ATR7,KS-_YcMsLdWIbM1slhsWbA,Modern Nails,738 W Brandon Blvd,Brandon,27.938335,-82.2952623,3.5,34,a276
ATR7,KSz4iaxIkC0uiLZJjM7AAg,Loann Nails,14914 N Florida Ave,Tampa,28.085111,-82.459978,3.5,22,a74
ATR7,Lp86pBFb3POlmoKk9w5tzQ,Melt Out,4119 S MacDill Ave,Tampa,27.9044952,-82.4941202,4.5,24,a233
ATR7,N3yd8whX9BW1HLz63XthBA,True Nails,3802 Sun City Center Blvd,Ruskin,27.712498,-82.374488,3.0,25,
ATR7,OaYSTg3qlZRM_v6G-4ZVOA,Jade Nails,"3730 Tampa Rd, Ste 4",Oldsmar,28.0433439,-82.6795245,3.5,18,a416
ATR7,PiHChXsj6UH9AZeUqzpEvQ,Salon Volo,5848 54th Ave N,St. Petersburg,27.8200514,-82.7134271,4.5,33,a78
ATR7,Q_sHBiJ2zRy4z1iI_l133w,Unik Nail Studio,11343 Big Bend Rd,Riverview,27.79116865,-82.3172228328,3.5,33,a43
ATR7,QbhrEPuXmWsGkp23_NSGJg,Quality Nails,2643 Gulf To Bay Blvd,Clearwater,27.9573246,-82.7293164,4.0,34,
ATR7,R9m1Pb37YhSo9WJAKEr3Xg,In'Dulgence Nail Spa,6818 22nd Ave N,St. Petersburg,27.790705,-82.735751,3.5,47,a435
ATR7,SHMaxSrTwnAKEGPHth1MtA,Princess Nails,"13002 Seminole Blvd, Unit 3",Largo,27.8915645,-82.7878454,3.5,10,a244
ATR7,SpGx7d37AOliKUlbGnCjpA,T-Nail & Hair Spa,855 W Bloomingdale Ave,Brandon,27.8928488,-82.2959622,3.0,12,a219
ATR7,TM81Bgm6ynYfIE1lCChyfQ,Modern Nails,10067 W Hillsborough Ave,Tampa,28.004046,-82.597874,3.0,24,a22
ATR7,TgedHxemNlFS3I4aS6zU7g,D Retro Salon & Spa,102 Myrtle Ridge Rd,Lutz,28.1238405793,-82.4621831852,4.0,9,
ATR7,TrRK0RN86WkkElFJQv1IzQ,Lee Nails,2223 N West Shore Blvd,Tampa,27.964279,-82.522359,2.0,48,
ATR7,UO2BFDgKww61W7169nPDmA,Nail Time & Spa,3680 W Gandy Blvd,Tampa,27.8934199,-82.5054969,3.5,46,a368
ATR7,Ue5FAeQWQJ0jGal4IslV9w,Perfect Nails And Spa,922 Curlew Rd,Dunedin,28.049929,-82.7780422,3.5,37,a174
ATR7,VZ07tVzOD3DJgzEQJBkNFw,We R Nails & Spa,9325 4th St N,St Petersburg,27.856928,-82.638687,4.0,33,a275
ATR7,WKSf7UQhANmzyxCtJ87abw,Venetian Nail Salon and Spa,"28163 Paseo Dr, Ste 190",Wesley Chapel,28.1881189,-82.3505007,3.0,124,a295
ATR7,WeGz0K48JBnRoKO_l8SO6w,K Nails & Spa,3401 W Bay To Bay Blvd,Tampa,27.9199243,-82.4991342,3.5,61,a207
ATR7,XMcG6oDddSMyWsOEI3v2jQ,Asian Nail Spa Studio,11014 4th St N,Saint Petersburg,27.872455,-82.639756,3.0,17,
ATR7,XNP3-_IPF3GljkFAW-_udw,Midori Organic Salon,1220 Cleveland St,Clearwater,27.9657831,-82.7866191,3.5,10,a417
ATR7,XTVvuOMZ5ibsI2lTNPBpvQ,Purelife Medispa,12442 Indian Rocks Rd,Largo,27.886226,-82.8328008,4.0,13,a428
ATR7,XnYHr5-NpgSY-LcrNUfWuA,Cassandra's Salon & Day Spa,3301 S Westshore Blvd,Tampa,27.9150881,-82.5270899,4.5,11,a53
ATR7,XqpQRVSQ6T_5f64ojjVmCA,Crystal Nail Spa,1446 66th St N,Saint Petersburg,27.785529,-82.729591,3.0,57,a30
ATR7,XzkDZsfPNkqnows3ngOzpA,T & L Nails,304 E Davis Blvd,Tampa,27.9254816,-82.453146,4.0,68,a86
ATR7,Yb04s8ffQODSYWyNmrCjGw,A & Q Nail Salon,12923 N Dale Mabry Hwy,Tampa,28.0642406,-82.5027482,3.5,24,a414
ATR7,ZLerfIo2cDSPXJ9K57WYxQ,Studio510,510 S Howard Ave,Tampa,27.887178,-82.493669,4.5,12,a6
ATR7,b5Jtx3tXhKBlFoVe0J10NQ,Palace Nail Spa,684 150th Ave,Madeira Beach,27.81059,-82.792345,4.0,52,a221
ATR7,bHwdWrlnLyYm7Anm3SulPA,Sago Nails,3891 Northdale Blvd,Tampa,28.094703,-82.506302,4.0,24,a294
ATR7,bP8Y5cHMda64Z3tGA-cYzw,Glossy 130 Nails & Spa,35817 US Hwy 19 N,Palm Harbor,28.0980134,-82.739562,4.0,172,a20
ATR7,ch77U6h1t81V2tEe2hyRIw,Hawaii Nail And Spa,9524 Blind Pass Rd,St Pete Beach,27.7560414757,-82.7592353897,4.5,143,a71
ATR7,dIDamKMaVu6kgAS4ecAuLg,Salon Monaco Tampa,2907 W Kennedy Blvd,Tampa,27.945093,-82.490596,3.5,16,a147
ATR7,fV2L2sw1BRuGE-yNgg2xqQ,Urbanity Salonspa,2614 W Kennedy Blvd,Tampa,27.9445637,-82.487303,4.5,7,a354
ATR7,fa18-XaDu4nMKNfKObpbvA,Whole Aveda,27001 US Hwy 19 N,Clearwater,28.0173286,-82.7336129,5.0,5,a272
ATR7,fnAskN29ZOIefCOB_J2sjQ,South Tampa Nail,3601 W Kennedy Blvd,Tampa,27.9449953093,-82.502464056,4.5,56,
ATR7,fqz703cZQazvoCus7MQ_cA,Organic Nail Bar,10308 Roosevelt Blvd N,St. Petersburg,27.8658307,-82.6426513,3.5,23,a52
ATR7,iGY6rrmoxLmRrZuWr2DXIg,The Most Nails,14951 N Florida Ave,Tampa,28.0858403418,-82.4594521319,3.0,10,a30
ATR7,iSRi-jopW2N2W08D4TdqLA,Posh Nail & Spa,6126 Winthrop Town Centre Ave,Riverview,27.8926053643,-82.3167492449,3.5,35,a27
ATR7,jep98ue9-5B12-J-FKNg1g,Paris Nails,871 W Bay Dr,Largo,27.9154162,-82.7986153,3.5,32,a420
ATR7,jmZ_uc4-Sd5GcniYfbHYZg,Bella Nails And Spa,18855 Hwy 54,Land O' Lakes,28.1945861262,-82.5037025706,3.5,65,a27
ATR7,lAzhqFt9SnLt_DXpu6iwoA,Gel Nails & Spa,11230 Boyette Rd,Riverview,27.8536663055,-82.3165893555,3.5,26,a79
ATR7,lauMl1GSzlgu-0M-ENdKQg,The Nail Lounge,12012 Anderson Rd,Tampa,28.0592587278,-82.5437366374,4.5,47,a380
ATR7,m3mLlSGV5_qS1LIwAHZdBQ,Salon Blond,136 Island Way,Clearwater,27.977892,-82.8164087,4.5,6,a97
ATR7,o4WGR2hv9eIrUeb_yVhK_A,Tips To Toes,2533 N Dale Mabry Hwy,Tampa,27.9638441,-82.5042872,3.5,39,a238
ATR7,ox7xYQqobDfdNPqnf5wR9g,Essentials Spa & Salon,33 6th St S,St. Petersburg,27.7705596,-82.6420771,4.0,32,a393
ATR7,p4cF23LBbkaG-gT6Yp4W2Q,Nail Lounge,7920 US 19 N,Pinellas Park,27.8439955281,-82.6873045526,4.0,48,a292
ATR7,pQIkNYPDhwE5PsjKxyyK5Q,New Image Nail Salon,2129 66th St N,Saint Petersburg,27.7886796,-82.7276507,3.5,47,a38
ATR7,q30NFC8gwXHstEtzn_KjsQ,Signature Nails & Spa,10488 Roosevelt Blvd N,Saint Petersburg,27.8670075001,-82.6457290752,3.5,72,a30
ATR7,qVJQZBNykLj1ftT8G235Mw,Regal Nails Salon & Spa - Tampa,6192 Gunn Hwy,Tampa,28.06190406,-82.55208792,1.5,6,a329
ATR7,sfV90qiyQGsi5KwyKZ6vIw,Sunshine Nails,1591 S Highland Ave,Clearwater,27.9392405057,-82.7737122944,3.5,42,a190
ATR7,sjutGGIgKF49e0XURe6fFw,Luxx Nail & Spa,12830 Henderson Rd,Tampa,28.062636,-82.5502647,4.0,54,a80
ATR7,t9cJMOdRBcci1g4pmWtFjg,United Nail and Spa,"5501 Gulf Blvd, Ste 101",Saint Pete Beach,27.730049,-82.742635,3.0,37,a80
ATR7,vBbw7V5fUaOSPgDe7ofqZA,Focus Nails,10605 Sheldon Rd,Tampa,28.045115,-82.581395,4.0,20,a33
ATR7,wgIfcAF_5OUBVHNuf1DsGQ,Essence Nail Spa,2541- 4 Countryside Blvd,Clearwater,28.0133147237,-82.7329867193,3.5,57,a30
ATR7,xBQAEzQaUsvHasCp_eYLKQ,Zephyrhills Nail & Spa,5540 Gall Blvd,Zephyrhills,28.2386060891,-82.1839213252,3.5,13,a153
ATR7,ypv2xbWuFggoCkiigXYiKw,Unity Nail Spa,1238 Cleveland St,Clearwater,27.9659066,-82.7861548,4.5,21,a123
ATR8,-unCU8aVi2mwl2Iky0cxFw,Queen Nails,11340 Ridge Rd,New Port Richey,28.2736843,-82.6279059,3.5,13,a323
ATR8,4uSF56Wa7sFXuTHHxEq_tw,T&T Nail Salon,3130 Tampa Rd,Oldsmar,28.04999,-82.698089,2.0,9,
ATR8,5yfn78kdKEnZHHMvQzIZSQ,Happy Nails,605 N US Highway 41,Ruskin,27.7240869349,-82.4331710436,2.5,5,a97
ATR8,8bSPm3kCP9tIjb-vraWpbw,Regal Nails,19910 Bruce B Downs Blvd,Tampa,28.155513028,-82.3566126979,2.5,6,a295
ATR8,8sUOL3Svz6KgBrtCFNDKQw,Porte Noire - Carrollwood,"13145 N Dale Mabry Hwy, Ste D",Tampa,28.066605,-82.502155,3.0,9,a61
ATR8,9BqYBdI7xqgmrqwC3tacEA,NY Nails,10670 New East Bay Rd,Gibsonton,27.8472723512,-82.3518137634,3.5,13,a367
ATR8,9PmtLYa_Cy-DtgI-tYlOIQ,Prive Nail Lounge,10781 Big Bend Rd,Riverview,27.7916582,-82.3291673,2.5,26,a287
ATR8,9oIA0qOufycPaEV-LQCs5A,Great Nails And Spa,16739 Fishhawk Blvd,Lithia,27.860876,-82.201216,4.5,5,a27
ATR8,AsreyLf8A2GbVACsZWKaSg,Big Bend Nails & Spa,13147 US-301 S,Riverview,27.793871,-82.335724,2.5,8,a474
ATR8,DY0O8X_C2Kyvx6OFGjPz0A,The Nail Lounge,1566 W Brandon,Brandon,27.9387176,-82.3079522,3.0,32,a213
ATR8,DbHJRVWZXx64_5f2M-RUJA,CT Nail Studio,"14100 Walsingham Rd, Ste 3, Sabala Plaza",Largo,27.8798836,-82.8342737,4.5,8,a28
ATR8,Gd52kRpEyLdQvUyO3I-3JA,Ybor Metro Market,1880 E Palm Ave,Tampa,27.9625155,-82.4381149,3.0,6,a402
ATR8,Gfe5VxwUtUMXjy_18Nn9QQ,Ultimate Nail,1460 S Belcher Rd,Clearwater,27.943852,-82.746898,3.0,7,a60
ATR8,IRu4uxyXmRwNp_rO5hpUew,Number One Nail Salon,12943 Walsingham Rd,Largo,27.881566,-82.817874,3.5,8,
ATR8,JZku_jQeeHXSdsWdXaW-Hw,Diamond Nails & Spa,8751 Temple Terrace Hwy,Tampa,28.0322613,-82.3557074,3.0,6,a194
ATR8,KMyJL1pIiqIdSdRett_WWw,Diva Nail & Spa,11200 Park Blvd N,Seminole,27.8402693352,-82.7942433512,3.0,12,a38
ATR8,LCmVh788p9HKwecucG-NzQ,Exotic Nails,5581 Park Blvd,Pinellas Park,27.8395194,-82.7099972,4.0,7,
ATR8,QyKVJ1vSYZg_b6bTIslbwg,Regal Nails,28500 State Rd 54,Wesley Chapel,28.234645,-82.3443413,2.5,5,a30
ATR8,RRuPYDlpbtX2oScNZX7bwg,Allure Nails & Spa,4847 Bruce B Downs Blvd,Wesley Chapel,28.227241,-82.352963,3.5,20,a79
ATR8,WO_wZUmLvbIyaTZYeaS--Q,Nail Pro -Brandon Mall,459 Brandon Town Center Dr,Brandon,27.93023,-82.32463,2.5,8,a21
ATR8,chKYcbxS6qh5PFXB4UiPFg,Blooming Nails & Spa,2056 Bloomingdale Ave,Valrico,27.8942166415,-82.2499098,3.0,39,a27
ATR8,d6oFq7ghKt1tBNdWXDdRzw,Heights Beauty Lounge,6115 N Florida Ave,Tampa,28.002931,-82.4591309,4.5,7,a318
ATR8,djWRCckW_KW4EfHwTDYF6A,K & a Salon,15227 Gulf Blvd,Madeira Beach,27.803018,-82.803253,4.5,10,
ATR8,h9GWRSIaRGJY9iGCuEjbjA,le Nail,760 Central Ave,Saint Petersburg,27.7708805,-82.6444825,3.5,47,a128
ATR8,ierIxYI5PFNBDITydTs1fQ,POLISHED,"12108 N 56th St, Ste B",Temple Terrace,28.0575509,-82.3942275,4.0,13,a45
ATR8,n-hEy35uukSmsDMCAdSbbQ,Holly Nails,2452 Land O Lakes Blvd,Land O Lakes,28.1933469,-82.464353,3.0,5,a38
ATR8,nWa1YKFaSTY_XpkalRmAWw,Lucky Nails & Spa,7441 US Hwy 301 S,Riverview,27.87451079,-82.3273501732,5.0,6,a154
ATR8,pCaqpiDDf_or5A-zWr0DUQ,Tipsy Nails & Spa,32538 US Hwy 19 N,Palm Harbor,28.0685195884,-82.7395790443,4.5,25,a59
ATR8,qWld9aah-havIH3Ygv0pRA,Jada Nails,9838 Little Rd,New Port Richey,28.2980352,-82.6706747,4.0,20,a18
ATR8,r2VKXV7Oszz8e49eBZi5Iw,Golden Nails Spa,121 107th Ave,Treasure Island,27.7691351,-82.7681728,4.5,19,
ATR8,wYCxwJiYx6olhCZdd3DeEQ,Cutting It Low,213 W Brandon Blvd,Brandon,27.9370519,-82.2868534,4.5,5,
ATR9,06EMsFBgKMdB6htNF4a_mg,Platinum Nail Salon,11121 N Dale Mabry Hwy,Tampa,28.0501156,-82.5034036,4.5,22,a332
ATR9,0u0kworBwVBIhYy74qCAJg,Caribbean Mystique Massage & Wellness Spa of Lutz,2435 Brunello Trace,Lutz,28.1931,-82.473465,5.0,6,a446
ATR9,2-dN7Ph_Z95POh98eEiDkQ,Kiros Beauty Nail Salon,7605 E Causeway Blvd,Tampa,27.9223574075,-82.3703575411,2.5,7,a282
ATR9,3StbUpz7IWtOeOpOvPhphg,Beauty by Azi,3274 Commercial Way,Spring Hill,28.4787675349,-82.60937802,4.0,13,a88
ATR9,4N793NJDZEcms0yKyjSaVw,Hello Gorgeous Nails,3515 49th St N,Saint Petersburg,27.8045554,-82.6989097,4.5,32,a65
ATR9,5MZN_FO_IqErFekR2lZTEw,Eva Nails & Spa,11932 Seminole Blvd,Largo,27.8814997,-82.7879818,4.0,15,a19
ATR9,6NmaXt6rjBrG6rbDShgwKw,Marilyn Monroe Spas,"125 2nd Ave N, Ste C103",Saint Petersburg,27.7741337,-82.6342137,3.5,31,a267
ATR9,BlQjz6Qx7iqMUQzvOyUnmA,My Nail Spot,27321 Wesley Chapel Blvd,Wesley Chapel,28.2396724,-82.363869,2.5,14,a38
ATR9,D3D9l4q23WSgDKN-091JNg,Touch Nail Spa,27233 Sr 56,Wesley Chapel,28.1865582,-82.3656624,4.0,159,a141
ATR9,Fu3QcNVVIQOHWTvxkOHy3g,Crown Royal Day Spa,2825 S Macdill Ave,Tampa,27.920136,-82.4938776,4.0,9,a271
ATR9,KRGW-57yfrTQJzwTn2KRkg,Salon West Hair Studio & Spa,13668 Walsingham Rd,Largo,27.8796767,-82.8276663,4.5,64,a299
ATR9,M2jY6Q6Ha4FoVQ3WdZoqGA,Diva Day Spa in Tyrone Square,"6901 22nd Ave N, Unit 516",Saint Petersburg,27.793018,-82.731298,2.0,34,a463
ATR9,QjTLNlLOOO7BbQJhApk92w,Chic Image Lounge,813 W Platt St,Tampa,27.9418972,-82.4682981,4.5,14,a339
ATR9,YcDlrVzBEiw50VHHKJvMdA,Mirror Mirror Salon & Spa,"3438 E Lake Rd, Ste 10",Palm Harbor,28.0620736739,-82.7058747921,3.5,5,a87
ATR9,Zxlul--TbJ2qW9QhW_VzUg,Salon Ultima,4008 Flamingo Dr,New Port Richey,28.217268378,-82.7337893347,4.0,9,a107
ATR9,cce0rPlPgmMhSVN0b3Dr4g,Friendly Nails & Spa,4647 Sunray Dr,Holiday,27.8547085265,-82.5347900391,3.0,12,a41
ATR9,m6MJhKvfw6b682b9f4OcbQ,Eclipse Salon and Spa,"19455 Shumard Oak Dr, Unit 104",Land O Lakes,28.1974333534,-82.4933104097,4.5,21,a297
ATR9,mYqB1GAngup8xkkdrD1UcA,Bay Nail Spa,"13220 Starkey Rd, Ste 300",Largo,27.89313,-82.76252,4.0,28,a92
ATR9,oAsXWUVU1WVOIxPlMT8KRA,Pure Natural Nail Lounge,101 1st Ave N,St. Petersburg,27.7722492,-82.634187,4.0,70,a442
ATR9,pwZdc17t9aoK6yS714zl3A,Oscar Nailbar,1233 Cleveland St,Clearwater,27.96451,-82.786119,4.5,55,a22
ATR9,r9DKU5daPucWc8gcUVMwDw,Luxury Nails and Spa,12153 W Linebaugh Ave,Tampa,28.0570181,-82.625338,4.5,49,a467
ATR9,sF4d_fH_A_wylZBEUb9Piw,Villa Blanca Nails,158 W Bay Dr,Largo,27.9165899,-82.7899065,3.5,12,a469
ATR9,uZUiYj3bF-x4CvS5khx_gA,Salon Solei,2659 E Lake Rd,Palm Harbor,28.0908971,-82.697589,4.5,29,a350
ATR9,wiUerf5AqrG1tJSEUlB98w,Victoria's 5th Ave Salon,6512 US Hwy 41 N,Apollo Beach,27.770833,-82.392452,3.5,12,a200
ATR9,y-HNXdhzbQAKzVzXjzUhVA,Page Nails,412 Cleveland St,Clearwater,27.9656634698,-82.8008587559,4.5,8,a343
ATR10,0UakJQt4R8r39Bq13ntjRA,Nail Art Lounge,"6585 126th Ave N, Unit B2",Largo,27.8870351,-82.7282655,5.0,7,a70
ATR10,FV7iTLa1_G9ST6Ort2iy_Q,Sunshine Nail and Beauty,4327 Lynx Paw Trl,Valrico,27.8771178,-82.2222507,4.5,27,a466
ATR10,P32kIN7x4ALH_TfWAfmfug,Essentials Massage & Facials of Brandon,3405 Brook Crossing Dr,Brandon,27.8933614,-82.2821192,4.0,57,a393
ATR10,REzYKUMuqwYCxa8IFzR7Nw,Totally Polished Spa,"1532 Land O' Lakes Blvd, Ste F",Lutz,28.1802562,-82.4642979,3.0,21,a471
ATR10,dN3z-n8kWpJ9wjHEov_cNA,Bonjour Ca Va Salon and Day Spa,3023 Central Ave,Saint Petersburg,27.771275,-82.674456,2.0,9,a103
ATR10,ejkLxMkeU3GJuFkY9R9wrA,Bella Bliss By B,"10676 Bloomingdale Ave, Ste 4  Bldg 4",Riverview,27.8942438135,-82.3245733202,5.0,5,a106
ATR10,k5ncc1FSi5QDqrSvCOE1wQ,Avant-Garde Salons,"5901 US Hwy 19, Ste 10",New Port Richey,28.244522,-82.7284803,4.0,5,
ATR11,0fMrxSTpsTZJZFjSUtwW2w,Badar's Hair & All,2321 E Fowler Ave,Tampa,28.0533804,-82.4333764,3.5,105,a11
ATR11,13GR3xAcuIH66fin3ZLxwg,Studio Red Hair & Nail Salon,933 Oakfield Dr,Brandon,27.9338925,-82.2972737,3.0,14,a157
ATR11,4LxrCAMxPhoFGCAF-dvWqQ,Golden Nails,"1261 Gulf Blvd, Ste 121",Clearwater Beach,27.951769,-82.830031,3.5,29,
ATR11,4P2OKnuCnGYWQsN9n6uP2A,Fancy Fingers,"3802 Ehlrich Dr, Ste 103-104",Tampa,28.0842794623,-82.5068413025,4.5,88,a79
ATR11,6NmMc6tpW6CDh3NeC2e0wA,Sacred Beauty Massage 'N Spa,5260 S MacDill Ave,Tampa,27.887178,-82.493669,2.5,10,a156
ATR11,7HnMQDXXWs4K4PtG9YiGLQ,Boutique Nails,"9945 Trinity Blvd, Ste 104",Trinity,28.1816972,-82.6500747,3.0,67,a7
ATR11,7cCdDqdJFlVdsrEu_VC-AA,Oriental Nail,3634 W Gandy Blvd,Tampa,27.893125,-82.503837,3.5,6,
ATR11,7vqGH4n12eTuuJqGFPzNyg,Hong Kong Nails,"5225 4th St N, Ste G",Saint Petersburg,27.8198214,-82.6382359,4.0,19,
ATR11,Br2kxlfN8YNjJlD1bKrVxg,Natural Nail And Spa,9874 W Linebaugh Ave,Westchase,28.0438243,-82.5963225,3.5,12,a27
ATR11,CJpVHZsBs2QIyCVzzmbnpA,United Nails,8321 Sheldon Rd,Tampa,28.024845,-82.582544,3.0,17,a120
ATR11,C_70-CrX6tKamfU7iPkyFQ,Salon Du Soleil Medi-Spa,16701 Gulf Blvd,North Redington Beach,27.816571,-82.821152,1.5,14,a58
ATR11,EBUiUtifi9u4Uf1IJYqhOw,Tiffany Nail & Spa,350 Westshore Plz,Tampa,27.9476869742,-82.52634154,1.5,57,
ATR11,HpDWpS6rpF-mY0Dx0nvH-g,Julie's Nail Salon,10421 Ulmerton Rd,Largo,27.896459,-82.784099,3.0,21,a345
ATR11,K-DX6rvzgawo6Yli7_xVeQ,London Hair and Spa,346 Corey Ave,St Pete Beach,27.7421648,-82.7494005,4.5,28,a233
ATR11,O69OCM8Em9ZoJoV_GVhw-Q,Luxor Nails,"2401 S Dale Mabry Hwy, Ste B",Tampa,27.9236398,-82.5061851,4.5,119,a184
ATR11,Pt3zysqPuQm0XKlN4h3rGw,Lavish Nails And Spa,912 N McMullen Booth Rd,Clearwater,27.9743457659,-82.7094611604,4.0,22,a38
ATR11,QJsDOrxFwSE9LXYy6mpAiw,Spring Nails,9420 US Hwy 19,Port Richey,28.2938716386,-82.7083901316,2.5,15,a19
ATR11,SCAwM_YZeRxspXmnD_VFgw,Shellak Nails,2401 S Dale Mabry Hwy,Tampa,27.9236684,-82.5061911,3.0,33,a230
ATR11,So6WRRwHFMd2tusWnoZVwA,Nails N Nails,"6800 Gulfport Blvd S, Ste 102",South Pasadena,27.7570952546,-82.7328198589,4.5,20,
ATR11,TbImb3PvXmLwPxsNnQiWTQ,Encore Nail Bar,13014 US Hwy 301 S,Riverview,27.79789,-82.33411,3.0,35,a240
ATR11,TgTSHCr2RyNxcwJJveyqxA,Asia Nails,40954 US Highway 19 N,Tarpon Springs,28.144404,-82.7425634,3.5,16,
ATR11,Ti_G2cdqKzxy3h37JyVu4g,Signature Nails & Spa,3605 49th St N,St. Petersburg,27.8056487,-82.699976,4.0,15,a51
ATR11,TsH8X0GV1DrbA7MtAlxWvg,French Nails,7412 Gulf Blvd,St. Pete Beach,27.7415632,-82.751544,3.5,9,a133
ATR11,UH2ldoHxQNbS1y5boOGxhw,Elite Nails & Spa,5305 E Fowler Ave,Temple Terrace,28.0534086584,-82.3952441714,3.0,79,a376
ATR11,VLwCKXBrVjBHaMwxLz5AcQ,Polished Nails & Spa at Tampa,15413 N Dale Mabry Hwy,Tampa,28.092463,-82.501342,4.0,72,a231
ATR11,VzJETJvbd_A1AaMJkaAwFA,Vivi Nails,"13129 N Dale Mabry Hwy, Ste C",Tampa,28.0669023,-82.5025611,3.5,17,a150
ATR11,Wxx2AIcWkwts2pPlYxRVbQ,King's Nails,7211 49th St,Pinellas Park,27.8376038,-82.6996492,4.0,18,a19
ATR11,X078zqwEzQlw37iyG-A8TQ,Spa Cafe International,"3202 Henderson Blvd, Unit 101",Tampa,27.9440310092,-82.4957409,3.5,22,a242
ATR11,Xfrk9ZRv_v8IB8t1JmnwVA,Sunrise Nails & Spa,1925 W Brandon Blvd,Brandon,27.9367811,-82.3153857,4.0,13,a60
ATR11,YjuC6X6RiPJA-dS8EHwrtg,Pink and White Nails,2944 Providence Lakes Blvd,Brandon,27.9222316,-82.3273258,3.0,150,
ATR11,Yrhb8Tc2pxJR1-OhJooRcg,LA Nail Supply & Equipment,705 W Waters Ave,Tampa,28.0255528,-82.4662427,4.5,23,a306
ATR11,YwKy4rbZgMAiVy3lM5cQfw,North Beach Parking Plaza,490 Poinsettia Ave,Clearwater,27.9817337,-82.8261828,3.0,5,a61
ATR11,ZVaEFKOBAGsQSn86xM0_UQ,Pip Nails & Spa,1212 Kingsway Rd,Brandon,27.9593238831,-82.2776947021,2.5,24,a79
ATR11,_WlLuhqMZYu2VEhwiSnjXA,Rose Nail & Spa,17689 Dale Mabry Hwy N,Lutz,28.122872,-82.502323,2.5,24,
ATR11,_tR1dQhKXmowK-WLNzC0Rw,Miledy's Hair & Skin Salon,4202 W Waters Ave,Tampa,28.0249542,-82.5141775,3.0,7,a251
ATR11,a6BMz9GirebgqsSpld-urQ,Fancy Nails,11511 N 56th St,Tampa,28.0530524,-82.3929812,2.5,14,
ATR11,an7KMQHzxBZeyxCyj76lOQ,Nails So Happy,11226 Spring Hill Dr,Spring Hill,28.4612045,-82.5381482,3.5,33,a38
ATR11,cdLyTFGmhhYLIq99wnN32Q,Vo Nails & Spa,11619 Sheldon Rd,Tampa,28.05423,-82.5820106,3.5,61,a326
ATR11,cn1yw-FBNxGYT4PCaQS-eg,Posh Nails & Spa,5064 N US Hwy 41,Apollo Beach,27.7375154718,-82.4299781546,3.5,30,a27
ATR11,d1iPSCRQqFYDf1eEAfDMCw,Queen Nails,"13355 Belcher Rd, Ste B",Largo,27.8937609002,-82.7452806473,4.5,11,a198
ATR11,dO-H2HIHaRdmm0naGJ9krQ,Tampa Nails,4730 W Cypress St,Tampa,27.9520335911,-82.5239342865,3.0,66,a89
ATR11,fBNjTSdPJ1mtTzIHYpQnDw,Future Nails,6162 Gunn Hwy,Tampa,28.0635341,-82.5509992,2.5,11,
ATR11,mOkO1JFFw2Iskgg30mJABA,Salon Robert Scott,"11014 N Dale Mabry Hwy, Ste 502",Tampa,28.050131,-82.5049389,5.0,5,a273
ATR11,mpHInkENPWKBQX0U9dDgrQ,Azul Nails Waxing Beauty,"14358 N Dale Mabry Hwy, Ste B",Tampa,28.0775852,-82.5082251,4.0,29,a388
ATR11,oiOu7COh2GMwRANa-88iIg,K Nails,14604 N Dale Mabry Hwy,Tampa,28.0808149,-82.5078016,3.5,21,a460
ATR11,pV0xgMdZED5M3ukcH36aJA,Hollywood Nails and Spa,"310 S Dale Mabry Hwy, Ste 140",Tampa,27.9417952,-82.5052643,3.0,24,a344
ATR11,qstUIThj90vC0jNjYjoxug,Fl Fantastic Nails,4332 S Manhattan Ave,Tampa,27.9016515901,-82.5179310435,4.0,11,a144
ATR11,tKr35anAX4qao0tuM21QqA,InStyle Nail Spa,10467 Gibsonton Dr,Riverview,27.8549288435,-82.328133611,3.0,33,a79
ATR11,xug7XFt2-jj7xSKWlxVlGg,Joyful Nails & Spa,710 34th St N,St. Petersburg,27.7794184027,-82.6794938743,4.5,49,a144
ATR11,yXHpVMz1RqjfkX10zeJBTQ,Reflections Hair Gallery and Spa,1717 State Rd 60 E,Valrico,27.9374781026,-82.259168554,3.0,11,a113
ATR11,zuGpUPcfws1FeupSkt8WVw,Elegant Nails and Spa,14915 Bruce B Downs Blvd,Tampa,28.082812,-82.412242,4.0,84,a65
ATR11,zv8_zaGKFwUvm9nWhgnPtw,J'adore Nails & Spa,"10500 Ulmerton Rd, Ste 274",Largo,27.89262,-82.7835867288,3.5,57,a427
ATR12,0qajFQEYoYcYRwWGThbYLA,Infinity Nail Bar,3314 W Kennedy Blvd,Tampa,27.9444467,-82.498143,4.5,92,a266
ATR12,Aw0UJ3l1tAN0UlNDjODf2Q,Allure Nails & Spa,3410 S Dale Mabry Hwy,Tampa,27.9124337,-82.5057928,4.5,91,a253
ATR12,CyTdLPijF-Q8zia9S3bQvQ,1st Sky Nails & Spa,"19651 Bruce B Downs Blvd, Ste B4",Tampa,28.152679,-82.352455,2.5,17,a38
ATR12,J5nR3qqaHKgROPAvN8vN5Q,Alex Nail Art & Spa,"2310 W Waters Ave, Ste C",Tampa,28.0249799,-82.4823985,3.5,11,a450
ATR12,N14Ic-2mdBvFdT0YvgWxXA,Glo All Out,3032 Central Ave,St. Petersburg,27.7707263,-82.6747127,4.5,9,a202
ATR12,QwXiuIDjX-yWa7_f5B9puw,The Massage Spa,4101 Central Ave,St Petersburg,27.7712556092,-82.6890719956,4.0,69,a387
ATR12,ZZ8mzJ0ePLZYdyUAM21m_A,Venetien Nail Spa And Lounge,13017 S Hwy 301,Riverview,27.797567,-82.335472,3.5,72,a27
ATR12,fzOy2gQYML9Pb9XVzWAL2g,Lovely Nails & Spa,12237 W Linebaugh Ave,Tampa,28.0568011,-82.6266511,4.0,39,a44
ATR12,rObTkrVHcy6fiQY1Y4_5qw,The Minimalist Salon,1211 E Kennedy Blvd,Tampa,27.950441,-82.446807,4.5,76,a312
ATR13,0rNnjcpS5-JK0gecgVM2qA,The Beauty,"6911 Pistol Range Rd, Ste 103 B",Tampa,28.0142727,-82.6119675,5.0,11,a254
ATR13,18EC88ppd63d9JMzfXIKrA,Fabbylous Hair Studio,4078 Commercial Way,spring hill,28.48797,-82.601172,2.5,7,a425
ATR13,VzBavobJDICQ5A6jSMt9cQ,LG Nails & Spa,132 Island Way,Clearwater,27.9784122805,-82.8171752607,3.0,7,a38
ATR13,YTGywGYr_CSidzCMiakWEA,The Nail Room,14306 N Dale Mabry Hwy,Tampa,28.0762275,-82.507779,4.0,17,a432
ATR13,wIekFhz6Ivtj7vN5qt5XwA,Serenity Nails & Spa,"2653 Bruce B Downs Blvd, Ste 104",Wesley Chapel,28.194803,-82.354226,4.5,30,a308
ATR14,0z5hRdV9bu05gAqUt7aFlQ,Pure Nails & Spa,3370 E Bay Dr,Largo,27.9165826,-82.7516193,4.0,26,a191
ATR14,4XcyL9tqIZeoQ2VVDCdUBw,Salon Lofts S. Dale Mabry,1108 S Dale Mabry,Tampa,27.9326918,-82.5051798,4.5,27,a9
ATR14,BHipTgtIq_puD-dQuwIeKQ,Studio 210 Salon,210 Oakfield Dr,Brandon,27.934234,-82.2874503,4.5,11,a321
ATR14,D4yA3LQRAAErqOf_KFXAfA,Sally's Spa and Rehabilitation Center,"10333 Seminole Blvd, Ste 4",Seminole,27.8665106,-82.7864917,3.0,5,a131
ATR14,IReGQozKLvvMpIVr61caYg,A Perfect Pair Salon,359 Scotland St,Dunedin,28.0103598,-82.7883237,4.5,11,
ATR14,TVtuIfDu8a8FoRWdiZukJw,Spa Moritz,"17401 Commerce Park Blvd, Ste 103",Tampa,28.135455,-82.3824749,3.5,12,a134
ATR14,Yexe_nmAf1ipwh07ny8sNw,Naglaa's Day Spa,"2120 S MacDill Ave, Unit F",Tampa,27.9253153,-82.4934227,5.0,21,a220
ATR14,ZJp4zt7tx2OaY6BJ6vw-ng,Nail Trap,12349 University Mall Ct,Tampa,28.0578094,-82.4342352,3.5,5,
ATR14,ap3jiSZ7UhSTiJDNxcmX0Q,Embellish Hair Design,"2930 Dr Martin Luther King Jr St N, Ste A",Saint Petersburg,27.7989518,-82.6470106,2.0,8,
ATR14,fMkiPpM0EofhQbjvvl9TjQ,Salon Lofts - Carrollwood,12823 N Dale Mabry Hwy,Tampa,28.063458,-82.5033825,4.5,8,a9
ATR14,qDo9F_x5Qon3gSJ0AyZIeg,Bella Michelle Day Spa,"2454 McMullen Booth Rd, Bldg-D, Ste-605",Clearwater,28.011718,-82.707785,3.0,21,a101
ATR14,wTD9F8O6wv3wXozoP2cOgA,Bleached Salon & Spa,108 Armenia Ave S,Tampa,27.945432,-82.4854073,4.0,8,a265
ATR15,1NuHkM5q5npt6tyBGvMrAg,K&S Nails,30036 State Rd 54,Wesley Chapel,28.2398722388,-82.3186911,3.0,15,a38
ATR15,21FmdG3T6NuZ3pNm9aOMng,Perfect Nail Art,2452 Land O' Lakes Blvd,Land O' Lakes,28.1933469,-82.464353,3.5,6,a38
ATR15,2u88essZZkL1NIPW0wwOSA,Blush Nail Lounge,"3689 Tampa Rd, Ste 302A",Tampa Bay,28.0451831,-82.6808282,4.5,73,a424
ATR15,4VE7LGhdZpXRQj6SPrnBXA,Sapphire Nail Bar,"3690 E Bay Dr, Ste J",Largo,27.917451,-82.7491687,4.5,41,a166
ATR15,4g11EYnFsbHej438_MsCFA,All That Glitters Salon,33112 US 19 N,Palm Harbor,28.072998,-82.739695,4.0,7,a328
ATR15,4z2zE8WVH_linhT5APMIPg,Chloes Nail Bar,227 Brandon Town Center Dr,Brandon,27.934923,-82.323954,3.5,14,a27
ATR15,CqQSzXFLH7lE2CKzUWH42g,Elite Spa & Nail,13170 US Hwy 301 S,Riverview,27.7928906382,-82.3331682733,3.0,62,a385
ATR15,DXZ3TP5MXb7X8vr76lpMAg,Oceanside Nails and Spa,2058 Badlands Dr,Brandon,27.9272746,-82.3161575,3.5,44,a320
ATR15,EGX18yRggGbseDGKPNyTLg,Pure Nail Bar Spa,"20304 Trout Creek Dr, Ste 104",Tampa,28.1634054,-82.3543038,3.5,61,a369
ATR15,Ep3tHKc8ZCYBS9nMLkIYAg,C’est La Vie Nail Bar,1401 34th St N,Saint Petersburg,27.7856813,-82.6788052,3.5,19,a38
ATR15,OD5jsUDn24Yr1RQMLKew-Q,Lee' N Nails,260 Apollo Beach Blvd,Apollo Beach,27.7714865,-82.3951884,3.0,8,a7
ATR15,QpyqdzfNXgS08Q2BFzjhDw,Pink Me Up Salon & Spa,1265 Bruce B Downs Blvd,Pasco,28.174678,-82.355519,4.5,19,a114
ATR15,bRTWD05drzNfzVP0IadX7A,Hollywood Nails & Spa,"27001 US Hwy 19N, Ste 1031C",Clearwater,28.017788,-82.732592,2.0,29,a246
ATR15,cAxLyZ1o5OcaziDAIXshSw,Noire The Nail Bar,2533 N Dale Mabry Hwy,Tampa,27.9638384,-82.5042811,3.5,21,a392
ATR15,g0EGRY4TvP-VI6I6c_6O7w,Luna Luxe Nail Loft,11738 N Dale Mabry,Tampa,28.0550510338,-82.5057087712,4.5,76,a68
ATR15,goCFS0pASBNIJdOD-e6KkA,Ocean Nails,12854 W Hillsborough Ave,Tampa,28.0285828236,-82.6377991963,5.0,6,a258
ATR15,h-wfp57vE4bqd5XpSimVGw,Top Line Nails,7330 W Waters Ave,Tampa,28.0245852,-82.5617483,3.0,45,a213
ATR15,jjfqSWrXAk3R7BogJnpXzg,Secret Place Nail Salon & Spa,12029 US-92,Seffner,28.002893,-82.2949857,3.5,6,a445
ATR15,kjASVLH1E_1G46y1ro9M5A,Fashion Nails,"4100 E Bay Dr, Ste B22",Clearwater,27.916933,-82.744451,5.0,21,a41
ATR15,nMXJDabXAbU2PY2d1rl3kQ,Noire Nail Bar - Tampa,4025 W Kennedy Blvd,Tampa,27.945277,-82.510593,4.0,28,a472
ATR15,qZUxI5RbbLiGLSv41wiqWg,Le's Nails,"3993 Tyrone Blvd N, Ste 104",Saint Petersburg,27.809766,-82.752765,3.0,18,a19
ATR15,rLtuUt16tCfM7T99DaG66Q,POLISH - The Nail Bar,13617 State Rd 54,Odessa,28.1965463398,-82.5900360912,4.5,40,a352
ATR15,v_vqna00z6WqKcIJZDkbAw,C Nails,"4058 Tampa Rd, Ste 3",Tampa Bay,28.0350317,-82.6543582,4.5,61,a30
ATR16,1WuxDyAlGy7U7r4XbVbpow,Metro Hair Salon and Spa,"13505 Icot Blvd, Ste 201",Clearwater,27.8948541,-82.7137001,4.0,19,a245
ATR16,iEEndKLghed2RQf1NtA8Mg,Shear Art South,"4004 S MacDill Ave, Unit 4",Tampa,27.905538,-82.493488,4.5,11,a229
ATR16,pTlvSTFoGVwUK30Cpj4nGQ,Beauty By the Beach,15401 Gulf Blvd,Madeira Beach,27.8043442,-82.8051665,4.5,6,a300
ATR16,vmygwd8y38EIbJL_FiMuEQ,EKOS Salon,401 E Oak Ave,Tampa,27.9611546,-82.4564363,5.0,9,a364
ATR17,1auxlzg0BFTKEQxLB3TU7g,Holiday Nails,3430 US Highway 19,Holiday,28.20896,-82.738096,3.0,13,
ATR17,9XHGAeZG4qbnEcMtr2txJA,Party N Style,"1930 Land O Lakes Blvd, Ste 8-10",Lutz,28.186142,-82.466003,4.5,26,a262
ATR17,9YLIFxGPYgH5PzT-Hj8--w,Elite Salon Studios - Tampa,14339 N Dale Mabry Hwy,Tampa,28.0769911408,-82.5067093223,3.0,5,
ATR17,AMWUSscJfD23ZHmdhd9v7Q,Salon Lofts - Wesley Chapel,"1249 Bruce B Downs Blvd, Ste 23",Wesley Chapel,28.1744168053,-82.3542893,4.0,6,a9
ATR17,Cw1Bns7c_DMefNQxOcWUeg,The Island Salon,"5901 Sun Blvd, Ste 118",Saint Petersburg,27.713263,-82.714048,4.5,9,a97
ATR17,DTW52w2NNaAf21pwlNSwHg,Salon Lofts Tyrone Square,7145 22nd Ave N,Saint Petersburg,27.7924565,-82.7377065,4.5,8,a9
ATR17,HsgM-CtRHolS6mTliZwL4w,Hot Stone Nails & Spa,1256 S Highland Ave,Clearwater,27.9511328,-82.7754251,5.0,8,a304
ATR17,JB3fC-OP1-Jtii_VSh6dHg,A Peaceful Harbor Day Spa & Salon,901 Apollo Beach Blvd,Apollo Beach,27.7757099,-82.4121048,4.5,8,a374
ATR17,JdRP7ZppyhhnK955Qcp20w,Paola Beauty Boutique,"3802 Ehrlich Rd, Ste 202",Tampa,28.084008,-82.507169,5.0,36,a10
ATR17,MLMI_PSuZYQyhM-ooe0Y6g,Nail Box And Viva Glam Salon,9328 Little Rd,New Port Richey,28.2926764,-82.6748667,4.0,12,a302
ATR17,RqpKDBvvgSITmeu_qXDRqQ,Salon Zed,19241 N Dale Mabry Hwy,lutz,28.156945,-82.48109,5.0,12,a216
ATR17,TXoOQtYA435oRklPe_3Maw,Addome Bella Spa,4270 Lake In The Woods Dr,Hernando Beach,28.4926724,-82.6013598,5.0,5,a383
ATR17,UqjvlGTGFrBFj5cwI4Y3Sw,Rituals Aveda Salon,"13149 N Dale Mabry Hwy, Ste D",Tampa,28.0660629,-82.5018964,2.5,7,a139
ATR17,Utcr10MpHDWFoqLeEqmgOg,Nail Confessions,4619 4th St N,Saint Petersburg,27.8143674,-82.638329,4.5,7,a433
ATR17,bfT-S1heLJloRi1VLDXSPQ,Iris Organic Spa,353 Main St,Dunedin,28.0116568,-82.7885293,4.5,13,a48
ATR17,iiAQ7A-kn33oqw927wjyLQ,Century Nail,12119 Little Rd,Hudson,28.3330965,-82.6680486,3.5,13,a190
ATR17,l9_4S_J26sbOZkoRLU5WCw,Queen Nail & Spa Seminole,11314 Seminole Blvd,Largo,27.874975875,-82.787193954,4.5,30,a359
ATR17,qXamwQGq8p7VXm1GwN5yZQ,Nina's Nail,9139 Park Blvd,Seminole,27.8396416,-82.766208,2.0,6,
ATR17,ziYoin2qn1AzgWU26Wnvzw,NAIL FX,26304 Wesley Chapel Blvd,lutz,28.2229342122,-82.3813906817,4.0,8,a30
ATR18,2gAiiBGtFQAUxJQ-DWto_Q,A Nails,5423 Village Market,Wesley Chapel,28.2357484,-82.3522434,4.0,37,a237
ATR18,6E9AiMa4mFIXJ0V6BK8TiA,Studio 7,5635 6th St,Zephyrhills,28.2399521,-82.18667,3.5,12,a409
ATR18,AMH582ZBjMmZ3NbCt28DIw,The Wexford House,2902 West Kennedy Blvd,Tampa,27.9445559,-82.4903985,4.5,82,a371
ATR18,CZj7es5uuGb4RtNWmyBVhQ,J.CON Salon & Spa,5811 4th St N,St. Petersburg,27.8248641,-82.6380743,4.0,81,a122
ATR18,I6RJg4c8W0XYOl4Vsya_wA,La Bella Vita Salon & Day Spa,31475 US Hwy 19 N,Palm Harbor,28.058293,-82.738199,4.5,52,a109
ATR18,IUSFbOIk_mmxRyB6NNxmjw,JenSpa,2200 49th St N,Saint Petersburg,27.7921016,-82.7002932,5.0,9,a327
ATR18,TdqChBrlQ4RxNtvxGF6tDQ,Barrelhouse Barber,"3502 N Nebraska Ave, Ste B",Tampa,27.9757909,-82.4515552,5.0,10,a260
ATR18,b14flzMRl1iEeG6CtJMhZQ,Beautello's Studio,"7663 Cita Ln, Ste 101",New Port Richey,28.2184408,-82.6872587,5.0,25,a336
ATR18,e88j2blzIYJGIAuQO_F68w,Jellis Nails & Skincare,"27642 Cashford Cir, Ste 111, Parlour Beauty Boutique",Wesley Chapel,28.1888723,-82.3583697,4.5,18,a104
ATR18,i5-7pNVVJWjck2uAEUT0bA,Tessani Hair Studio,1834 W Lumsden Rd,Brandon,27.9238578252,-82.3147871394,4.5,19,a69
ATR18,l09YmuCMWVe5zjj5xBTdlw,Best Nails,36613 US Hwy 19 N,Palm Harbor,28.1050523,-82.7391793,4.5,32,a182
ATR18,puVXnkZd0GjWlRpqwt_xhg,Pulse Salon and Spa,3756 Turman Loop,Wesley Chapel,28.218421926,-82.3548716925,4.5,22,a351
ATR18,sqagmxPwooI6XVvSjvj5YQ,Three Palms Salon & Spa,5535 Grand Blvd,New Port Richey,28.2398336,-82.7198561,4.5,9,a382
ATR18,ycXhAcVl2VigM6O1Svx6bA,Plaza Hair and Spa Salon,11670 Oakhurst Rd,Largo,27.8791742,-82.8333268,4.5,8,a373
ATR18,yddTfdJ1DgKFzUE-hOhYpw,Dawn Pratt,"1924 Dr Mlk Jr St, Ste A",St Petersburg,27.7902734,-82.6468623,5.0,8,a337
ATR18,z-s_l9SLZiqhAArcdkYOaw,Pia Esthetics Day Spa,1032 Mlk Jr St N,St. Petersburg,27.7827375,-82.6468712,4.5,94,a31
ATR19,2k3DNNMHtVwk09BoSCxEHQ,Urban Savvy Nail Spa,10342 Roosevelt Blvd N,St Petersburg,27.8658949,-82.6435678,5.0,16,a23
ATR19,8li92PJwuy1fy9p4-TPekQ,Organic Nails & Spa,202 W Alexander St,Plant City,27.989865,-82.122787,3.5,13,a406
ATR19,BRs9RVFTpErtUSB7uD-mYA,Nail Art,2136 34th St S,Saint Petersburg,27.7491592,-82.6786737,3.0,8,a130
ATR19,CEiV5uTE84QQ4NRCJL6aTg,Touch Nail Spa II,8630 Hunters Village Rd,Tampa,28.1393351172,-82.3582461417,4.5,49,a30
ATR19,J5a8w1IZ1GZTb9BsMeiFEQ,L&J Nails,11421 N Dale Mabry Hwy,Tampa,28.0523943,-82.5030865,4.0,5,a51
ATR19,MfPX16N8cbk21zJvP6B9Wg,Satin Soles Salon,463 Patricia Ave,Dunedin,28.0056999,-82.7751263,5.0,21,a175
ATR19,SUYd7FFXYgaugCP45cAkfA,Crown Royal Salon,"14306 N Dale Mabry, Ste E",Tampa,28.0762275,-82.507779,4.5,8,a18
ATR19,Y0fYGN8sfGIVRHAAUSvYsw,TC NAILS & SPA,"3163 Curlew Rd, Ste 1",Oldsmar,28.0496359,-82.696983,4.0,16,a436
ATR19,YBqB2z1BLCJxyv0sZZa4OA,Perfect Nail & Spa of New Tampa,"17512 Dona Michelle Dr, Ste E",Tampa,28.1262702,-82.3711665,4.5,22,a64
ATR19,YVCkBdxbgQlPM-yU_Y7Cug,Love Nail & Spa,7869 Gunn Hwy,Tampa,28.080376,-82.577286,4.0,115,a14
ATR19,bG0SvM1cIo7KNeX0HDsyoQ,Pink and White Nails,10879 Bloomingdale Ave,Riverview,27.8918674,-82.3191171,3.0,41,a30
ATR19,kTzt1OcjMFaRrWuwJA4bSA,Fantastic Nails & Spa,1965 W Lumsden Rd,Brandon,27.9231363,-82.3160566,3.5,61,a170
ATR19,nhf6me9zjwT66CJ4MNMStA,Heavenly Hair Designs,62 Commercial Way,Spring Hill,28.4349203,-82.6382894,4.5,6,a97
ATR19,oLdqWw3Ct6Vh7k2cVjqSsw,Aj's Nail Spa,3611 W Hillsborough Ave,Tampa,27.9974204692,-82.5018532262,1.5,6,
ATR19,qxcEm3As4MtSPYa9xKn72Q,Fresh Nail Bar,"5537 Sheldon Rd, Unit Z",Tampa,27.9989615,-82.5822275,4.5,33,a346
ATR19,zIVFrNzgxpiotk0loY6GVg,Mibella Nail Lounge & Spa,1621 Central Ave,St. Petersburg,27.7711883,-82.6552958,4.5,34,a341
ATR20,3UQBJs1M4FcrM3PxwituwQ,Glo Tanning,3051 4th St N,St. Petersburg,27.7833408679,-82.6391197614,4.0,26,a298
ATR20,5hw_kMMw8s4X0xWXOdsy0Q,Sophisticated Hair & Nails,31133 US Hwy 19 N,Palm Harbor,28.0549341,-82.7386935,3.5,8,a176
ATR20,ATbojITCoQDhKqH8RswaaA,Happy Nails and Spa ,16240 State Rd 54,Odessa,28.1860916981,-82.5458129123,4.0,64,a111
ATR20,CLEWowfkj-wKYJlQDqT1aw,Blow Bar Express Styling Salon,"310 S Dale Mabry Hwy, Ste 110",Tampa,27.9419745389,-82.5053069603,4.0,55,a3
ATR20,CNbThuDvxo5NnT0eZ70gzQ,Nails by Lina,1110 34th St N,Saint Petersburg,27.7830293,-82.6798966,3.0,31,a438
ATR20,FYzZd2mlMIPScy95UY2xkw,McMahan Hair Salon,10464 Roosevelt Blvd N,St. Petersburg,27.8669377,-82.6450314,4.0,11,a4
ATR20,GU3dOawEWrt-NKkYOeoiuQ,Colour Nail Spa,290 Windward Passage,Clearwater,27.9774855009,-82.817262472,5.0,21,a401
ATR20,Mo3t-QI5YsZNvCy_zuBdTA,Signature a Boutique Salon and Spa,711 Harbour Post Dr,Tampa,27.9395856,-82.4517549,4.5,24,a396
ATR20,ZDzDV0MW0qc3-4JbjkOnWg,Elite Spa,9661 Bay Pines Blvd,Saint Petersburg,27.81479,-82.773471,2.5,13,a138
ATR20,ZSFm8H2hlnzYsYeMdUxcmQ,French Accent Salon,"4830 W Kennedy Blvd, Ste 195",Tampa,27.9440098088,-82.5249627116,4.5,16,a283
ATR20,cbEe98Pd51S1-htCbLqPYw,Jacqueline's Salon & Day Spa,279 107th Ave,Treasure Island,27.7702108,-82.7659863,5.0,27,a274
ATR20,p-2vPK0OcRw8WR9C2F81Dg,Lee Nail & Spa,"6013 Wesley Grove Blvd, Ste 104",Wesley Chapel,28.2441519,-82.3510799,3.5,70,a215
ATR20,qm4n5ebzaTZwZA2owMaWpQ,Nail Zone and Spa,4946 4th St N,St. Petersburg,27.8172783,-82.638934,4.0,84,a285
ATR20,qth_U8-Kwp67gA9u2jNECw,Happy Nails,"2325 Ulmerton Rd, Ste 10",Clearwater,27.8949152157,-82.6674913602,4.0,161,a84
ATR20,t27cfFjY1iLaQD5dTQOpCg,Nail Shop,5175 34th St S,Saint Petersburg,27.7207683,-82.6794282,3.0,42,a22
ATR20,xiwmFksInxGZZSFaoZGxGw,Portobello Nails & Spa,13061 Park Blvd,Seminole,27.8446121264,-82.8191156148,4.5,38,a189
ATR20,z8JSPtquEA8Fv4T2d1duqg,Mandalay Mist Bronzing Spa & Boutique,1123 Professional Park Dr,Brandon,27.91968,-82.323585,4.5,27,a375
ATR21,4HHolU9V3HaBsVf9BuHcEg,The Pamper Stop,146 W Robertson St,Brandon,27.9361511,-82.2877328,2.0,36,a32
ATR21,9Jxo_vUbKBzdpbJBDU3pdQ,California Nails,10523 Spring Hill Dr,Spring Hill,28.4610911,-82.5442639,5.0,5,a379
ATR21,A-RFY1GE2D7x0DTlRKA7eA,Joy’s Nails & Spa,8507 Hillsborough Ave,Tampa,27.9969866478,-82.5792796248,3.5,12,a411
ATR21,IxlNCKtEcKtRRgyVoNoO_Q,Salon Posh,3857 Northdale Blvd,Tampa,28.0942546,-82.5051641,4.5,26,a309
ATR21,KcvY1mPEQb0cBflIjVJj5Q,Crystal's Nails & Spa,"1401 Gulf Blvd, Ste 4",Indian Rocks Beach,27.8968523,-82.8480337,3.5,30,a74
ATR21,NwC6HhcWEfkcC1WjxC57_w,Studio K Lash And Nail Studio,406 N Morgan St,Tampa,27.9488467,-82.4556794,5.0,10,a470
ATR21,idToyk26UAcCyQQLbufcAQ,Carrollwood Day Spa,12936 N Dale Mabry Hwy,Tampa,28.0643041,-82.5058438,4.5,51,a398
ATR21,nRGxU90L9oTr2YUSPNakKA,Rhonda's Hair Salon,"5002 W Linebaugh Ave, Ste C",Tampa,28.039694,-82.5275403,5.0,5,a73
ATR21,qrO5T4FDYzQwrCCl02ITJQ,Belle Elan Salon an Organic Salon,5740 Missouri Ave,New Port Richey,28.248914,-82.719145,3.0,10,a129
ATR21,uIEbU-1PoQ3K7mFk4p0cvw,Salon Lofts - Saint Petersburg,1068 4th St N,Saint Petersburg,27.7833708,-82.6387431,4.0,26,a9
ATR21,ymIq8acsst7zq9XT0VYH3w,Tracy and Company,2306 W Gray St,Tampa,27.9482341616,-82.4833566337,4.0,10,
ATR22,5-lsWndRatqrCG9pEwcP8g,Got Split Ends,4376 Park Blvd N,Pinellas Park,27.8388675,-82.6933774,5.0,11,a49
ATR22,ZHYtzoJDwjPz7gCSjjJSAg,Parlour Beauty Boutique,3747 Bruce B Downs Blvd,Wesley Chapel,28.2117427,-82.3543521,5.0,6,a117
ATR22,_Zj8KJhd46wXN9PT1KbX2A,Harmony Day Spa,"13801 Walsingham Rd, Ste C",Largo,27.8817798,-82.8300313,3.0,8,a90
ATR22,mNbmYSH6Uy97Wyf15oH9Uw,Salon Tre',"8351 State Rd 54, Unit 104",New Port Richey,28.206623,-82.675593,4.5,8,a439
ATR22,s4WmZN_aRKm11MzOLP6SNw,B Andrew Skin Care,"2050 62nd Ave N, Ste B",Saint Petersburg,27.8279595,-82.661335,4.0,8,a465
ATR22,smWkeNU57qoE01cRQlSU7Q,Art Of Nails,4293 73rd Ave N,Pinellas Park,27.8386759,-82.6914793,4.0,7,
ATR23,60lyE0aqFQbjb-NwMnSuFw,Regal Nails & Spa,796 W Lumsden Rd,Tampa Bay,27.924326,-82.295884,4.5,88,a224
ATR23,AMo7fYjA5xDIeG7TtViVmg,A Sun Nails & Spa,6279 W Waters Ave,Tampa,28.0279683,-82.5473588,3.5,16,a93
ATR23,LSDAi0WG6uiQxRDnF91XMQ,Sophea Nails and Spa,1980 S Pinellas Ave,Tarpon Springs,28.1231638,-82.7608925155,4.0,20,a421
ATR23,SPp46aC_4VARzuSh-861yA,Essentials Massage & Facials Carrollwood,11782 N Dale Mabry Hwy,Tampa,28.0558008,-82.5059409,3.0,33,a363
ATR23,XQvtwo371oqkZSO01x1pJQ,MariMazingNails,1041 Professional Park Dr,Tampa Bay,27.9203417,-82.3235784,4.5,19,a83
ATR23,Xvux58ztZYqEEKnfh5e4Dw,The Nail Room,14306 N Dale Mabry Hwy,Tampa,28.0763464,-82.5077615,4.0,13,a353
ATR23,YfQBJHjwSk_M3DrRd1dt6Q,Amour Nails & Spa,11963 Sheldon Rd,Tampa,28.057639,-82.5821,4.0,30,a264
ATR23,oGE7WCtqFfkY_QorkFymuQ,Oriental Secret Nail Salon,26242 US 19 N,Clearwater,28.010052,-82.7344717,3.5,8,a20
ATR23,ovNR6zv_meFC2JGrzmIyhg,Suzin Nails & Spa,6013 Gall Blvd,Zephyrhills,28.245391,-82.19028,3.5,9,a234
ATR23,zPRKwvJu8eoDixvuMVR4DA,Lux Nail Spa,"6920 22nd Ave N, Ste 115",St Petersburg,27.7906811,-82.7346931,5.0,10,a108
ATR24,63EhfPWWgWp4YuMUrog0uw,T Nails,1140 94th Ave N,St. Petersburg,27.8574962,-82.6501148,3.0,24,a41
ATR24,6D0Wqg9dVh_v-aUbVwLIHg,Dillard's Aveda Salon & Spa,8161 Citrus Park Dr,Tampa,28.067684421,-82.579812929,4.0,5,a325
ATR24,7LO4aA-7SS4tTLanSNh6oQ,Seaside Nails,1724 S Dale Mabry Hwy,Tampa,27.927662,-82.505412,5.0,5,a51
ATR24,BmXWt1UzsVU0ZsYoN5PDrA,LN Nails & Spa,5101 E Busch Blvd,Tampa,28.0323182783,-82.3987450693,3.5,10,a404
ATR24,EkET4lMOVJuJeS39q6mHhg,Dreamie Nail Spa,222 E Bearss Ave,Tampa,28.0884956505,-82.4586904964,4.0,9,a67
ATR24,MhAkoQAOw7xqHPjRrnPW7g,Noire Nail Bar,25682 Sierra Center Blvd,Lutz,28.153781,-82.415683,3.5,65,a30
ATR24,RjWQIIShjDoeUJCs2UmHyQ,Bliss Nails & Spa,"3642 W Gandy Blvd, Ste C",Tampa,27.8934414308,-82.5033907352,3.0,20,a462
ATR24,S2Z8j8DvuIAkx5McfEobqg,Kava Nails & Spa,4438 Park Blvd N,Pinellas Park,27.8388822,-82.6945161,4.5,7,a304
ATR24,YiAF1SaKXKh8f9HHwjhefg,Jade's Designs Nails & Spa,"12421 N Florida Ave, Ste 101",Tampa,28.0610431,-82.4587342,4.0,6,a178
ATR24,_olR8aeQ_-ga860F8tvG0w,Turbo Nails,1332 Seven Springs Blvd,New Port Richey,28.188365,-82.698673,3.0,26,a18
ATR24,etQELat9f2TrRq2m90fPmw,Paradise Spa & Nails,8750 Park Blvd,Seminole,27.8388501,-82.7604394,4.0,15,a221
ATR24,lSooXg2B5yngbNmisot_tA,Serenity Nails & Spa,"2794 Gulf To Bay Blvd, Ste 4",Clearwater,27.9612442,-82.7217653,4.0,24,a182
ATR24,uKtnOXVStnOrYGqh1eGP2w,Star Nails and Spa by Christina,12026 Anderson Rd,Tampa,28.0602259,-82.5436297,4.5,14,a120
ATR24,wwQPa6j61_SmnsPk6nAjhg,Deja Vu Nails,292 Westshore Plz,Tampa,27.9474651501,-82.5285441518,2.5,19,a335
ATR24,x18CDd5oQpbPgVg-Jndx0w,Kay Nails & Spa,34722 US Hwy 19 N,Palm Harbor,28.0880907651,-82.7400021628,4.0,18,a294
ATR24,yXiRH0q4EefNPwVe1vyDug,V O Nails & Spa,12046 Indian Rocks Rd,Largo,27.8828883,-82.83339,3.0,53,a209
ATR24,zuiHD4jjJoutG4aOXxJPAw,Laniakea Salon & Spa,9059 4th St N,St. Petersburg,27.8545725,-82.6383105,3.0,8,a53
ATR25,7cdG6uHH2Xc_Z8VEKHEKsA,Prana Nail Lounge,"3784 Tampa Rd, Ste 7",Oldsmar,28.0427441944,-82.6763425607,3.5,48,a211
ATR25,GV_b7bZ8xo37_SUnDtx18A,Perfect Ten Studio & Spa,"6393 Dr Martin Luther King Jr St N, Ste 103",St. Petersburg,27.8303651,-82.6457945,4.0,22,a338
ATR25,ZMTdF8mdDGpWoluhGSH8Fg,Yessy’s Beauty Studio,"4002 W Waters Ave, Ste 9",Tampa,28.0250004,-82.5092583,5.0,11,a257
ATR25,cYUFOGu9ZD34mP3DjC6vGQ,Tampa Nails,2507 W Hillsborough Ave,Tampa,27.9965403632,-82.4846676356,2.5,69,a89
ATR25,qKAQe8IxMrsjVIF8LaatNw,DPO Design a Hair Studio,"13145 N Dale Mabry Hwy, Studio 18",Tampa,28.0625422,-82.5031198,4.0,13,a165
ATR26,8ZSj95pgzTBdUxORgATCSQ,Elegant Nails & Spa,2146 Main St,Dunedin,28.0195500538,-82.7500893978,4.5,92,a294
ATR26,G1EStwbrdBbCKQnG4UYVjA,Lovely Nails,"19455 Shumard Oak Dr, Ste 101",Land O Lakes,28.1975593,-82.4937611,4.5,31,a81
ATR26,WjoCgghndEw0Cq736UTHAw,BE Nail Bar,"7756 113th St, Ste D",Seminole,27.8426142659,-82.7954508531,3.0,71,a247
ATR26,vs40a26xjK2oOIZqIerJYg,Nail World,3317 Lithia Pinecrest Rd,Valrico,27.8955882,-82.2432392644,4.0,6,a280
ATR27,BBGWBlihfm0vvLkcRJR6yw,Yolo Salon & Spa,"1155 Pasadena Ave S, Ste E",South Pasadena,27.7585368,-82.7371187,4.0,13,a166
ATR27,DCCyDTwYhyzeznIyDpjmBw,Hello Beautiful Colour Salon,3801 S Manhattan Ave,Tampa,27.9084761,-82.5183723,4.5,46,a205
ATR27,Dd_C6AHCAamqfDgPnwW9cQ,Spa Evangeline,1203 S Howard Ave,Tampa,27.9308620512,-82.4834124993,4.0,40,a119
ATR27,E9Z53oomVjeh6hzfYwva3A,Salon Lofts Couture Hair Loft,1941 W Lumsden Rd 104,Tampa Bay,27.9214963801,-82.3161971143,4.0,5,a458
ATR27,EQ4PyBBXnBeFWDoQQ_tYeQ,Helen's Hair Design & Blonding Bar,"2198 NE Coachman Rd, Ste G",Clearwater,27.9724804825,-82.7466091141,3.5,9,a347
ATR27,HkdIGOvJunTJG8hR1l09Cw,Mia Bella Salon and Spas,16741 Gulf Blvd,North Redington Beach,27.8170452,-82.8216685,3.5,20,a390
ATR27,MBxcC2spB4juXq9lqExFKA,True Nails and Eyebrows Threading,"7010 Sheldon Rd, Ste 700",Tampa,28.0146712,-82.5837389,3.0,19,a60
ATR27,hTh3n4IgdK5Q3VjJIJWlDQ,Ocean Breeze Day Spa,"2058 Bayshore Blvd, Ste 4",Dunedin,28.039776,-82.78422,5.0,7,a222
ATR28,EjenPUBG4SbxpC3CB4_Hng,Belle Âme Day Spa & Salon,21758 State Rd 54,Lutz,28.1867804,-82.4563622,4.0,19,a186
ATR28,MRicGSGN-pCtP-wEFiAWKQ,Shear Impressions Salon,5916 Providence Rd,Riverview,27.8945954129,-82.3183359133,4.5,68,a259
ATR28,YAIlEauYA1ap1PZzj8mIyw,Dream Nail & Spa,3444 Tampa Rd,Palm Harbor,28.066609,-82.719881,3.5,18,a201
ATR29,FU80GhkVeJp6gsYjk-DzqA,ANA ESPOSITO DOMINICAN SALON,1748 Drew St,Clearwater,27.9683216,-82.7647141,5.0,6,a437
ATR29,HRmbrbl0FgKc8Q_QmlPcew,BMT Nail and Spa,2018 66th St N,St. Petersburg,27.7890642,-82.7285292,3.5,11,a22
ATR29,J1hn9Yf1U6sqsA1h-DAzlA,The Little Vintage Salon & Spa,7500 Ulmerton Rd,Largo,27.8937164502,-82.7423038204,2.0,10,a166
ATR29,KmHIn2zzmLfUL9LM3kQVhA,JJ Blossom Nails & Spa,5128 US Hwy 19,New Port Richey,28.233806,-82.728198,3.5,10,a280
ATR29,QKMcd70-hcc23OzOoBIItQ,Salon Tre' Anne,26606 Wesley Chapel Blvd,Lutz,28.226941,-82.377028,5.0,11,a293
ATR29,V58Gx-Skk1IphpssvMKnvw,Hands of Praise,6324 Rowan Rd,New Port Richey,28.2506321,-82.6985183,3.0,5,a159
ATR29,WSfT-yhUSXMk4h9dEoyNJw,Le Nails,8789 N 56th St,Temple Terrace,28.0285410775,-82.3925762489,2.0,24,
ATR29,XCG2Qr4vZuJRCPSp5Y_y-g,Pro Nails,8542 Old County Rd 54,New Port Richey,28.216281,-82.673512,4.5,5,a456
ATR29,Zc0xsDB-httcH3XZxM_5Bg,Salon Lofts - Courtyard at Countryside,"2530 State Rd 580, Ste D",Clearwater,28.0206381,-82.7320808,3.5,9,a9
ATR29,a4qmoeiRlN6QQ3Gn930j5w,Amerinails,2820 E Bearss Ave,Tampa,28.0814,-82.427836,3.5,26,a124
ATR29,cSsNC0gKJyPGGXcYJWAr0g,Polished,"500 Main St, Ste B",Safety Harbor,27.9906337,-82.6925175,4.0,7,
ATR29,glvg6i1dC_hmfC7ugu4afA,QT Nails,5673 Park St N,St. Petersburg,27.8237153775,-82.7535778284,4.5,8,a19
ATR29,nBi3K4O7lkrTVaTg-UiTKQ,Nails & Beautee,1496 Pinehurst Dr,Spring Hill,28.456898,-82.626334,4.5,9,a60
ATR29,pormGo60vNKRs4m9RHFEOg,Nails By Helena - Salon Lofts,7145 22nd Ave N,Saint Petersburg,27.792441,-82.73783,3.5,5,a9
ATR30,FsJImlCL9GbTD5jBOFwSsw,Starlight Nails,8322 N Florida Ave,Tampa,28.0241665906,-82.4607943201,3.0,14,a74
ATR30,GKMJSqKp1Tvo_4TYuknrjQ,Sydney Salon By Anila,34250 US Hwy 19 N,Palm Harbor,28.0833301459,-82.7394994603,4.5,11,a322
ATR30,HJAPV4PaxPrkE2vdn-HIdQ,Nail Star,13467 County Line Rd,Spring Hill,28.435348,-82.491425,1.5,7,a19
ATR30,KnO6rVzvNshHc6C3HQAf7A,Imagine Hair Studio,"2454 N McMullen Booth Rd, Ste 201",Clearwater,28.011581,-82.70768699999999,4.0,7,a61
ATR30,OiRizu9fD9pXSYVFwNrMsQ,Bliss Nail Gibsonton by Sarah ,"7130 Big Bend Rd, Ste 109",Gibsonton,27.7929061545,-82.3710787296,4.0,69,a43
ATR30,Tky4LMt9IXlu0i5widrRZA,Excellent Nails & Spa,13879 W Hillbourough Ave,Tampa,28.033307,-82.645771,3.5,9,a120
ATR30,_4phv9XzNCWRCsISk4VAsA,ViXen Nails & Spa,"2676 Bayshore Blvd, Ste I",Dunedin,28.0521382,-82.7804271,4.5,15,a330
ATR30,cn1Xjzwtj2rppEi0ZIPaZQ,Premier Nail Bar,13875 W Hillsborough Ave,Tampa,28.0349971,-82.64574759999999,4.0,48,a261
ATR30,d49ly-dvDu1GyfaEOzrOWw,Lovely Nails & Spa,10271 Big Bend Rd,Riverview,27.79047,-82.339701,3.5,19,a163
ATR30,gNJ-4yDgHzj4oTOmpPGVEg,Noire Nails & Spa,4033 S Dale Mabry Hwy,Tampa,27.904824,-82.50627,4.5,97,a181
ATR30,h-NvywvfmvrjSssQ0B_4cQ,C C Nails,5325 Gunn Hwy,Tampa,28.0593626516,-82.5337499685,4.5,36,a310
ATR30,ik-kAu3YryyhohJ8n_NNmw,Bangz Salon,"2194 Main St, Ste I",Dunedin,28.01995,-82.7485369,4.5,6,a461
ATR30,oEFr3usXv90M5ihaV_26Tg,Luxury Nails & Spa,11141 Us Hwy N,Clearwater,27.8736078,-82.7065709,5.0,8,a348
ATR30,oqwXj6eP329h2S-Y6PMZow,Colors Nails and Spa,"7040 Land O Lakes Blvd, Unit 106",Land O Lakes,28.2595344,-82.4745853,3.5,22,a168
ATR30,pvyWBcZeRg1RnP4BTp-kCQ,Davi Nail & Spa,9205 Gibsonton Dr,Gibsonton,27.847252,-82.3543404,3.5,8,a63
ATR30,qelFKpW-xIr6A5SLBjmVHw,Usa Nails And Spa,4923 96th St E,Palmetto,27.599628,-82.512637,3.0,15,a39
ATR30,yO1d0S_Lb9SoLstlHKG2nQ,Crystal Nail & Spa,"3438 E Lake Rd, Ste 6",Palm Harbor,28.060757,-82.705889,3.0,62,a356
ATR31,HtYhzQb1sj211F9fVzGy_A,Sanaca Nail,1413 S Howard Ave,Tampa,27.9283641,-82.4839323,4.0,20,
ATR31,cboVR9dDuQYwyQRCrwX71g,Salon M,2820 Beach Blvd S,Gulfport,27.7415158,-82.707522,4.0,6,a396
ATR32,JpEDOGjZiyE59Ft2GSDQVQ,Pure Indulgence,"7135 St Rd 52, Ste 203",Hudson,28.3316957,-82.696224,4.0,5,a459
ATR33,M3cyhLHl1NBrZV6WEriIog,Dip Nail Spa,10045 US Hwy 19,Port Richey,28.303898,-82.703067,2.5,8,a27
ATR33,ToC1lBAyTIHbSRDdaZRjKg,Meraki Nail Lounge,4990 Park St N,St. Petersburg,27.8167414738,-82.7556624108,3.5,36,
ATR34,STuaHBDD33GLNnxfHAFtNA,Mari's Nails,,Tampa,28.0771075,-82.5023464,5.0,17,a333
ATR35,V90tOhvu5MpOx2AfriTVqg,Paris Hair Design,501 Main St,Dunedin,28.0124652,-82.785581,3.5,6,a410
ATR36,X-E_qJ1Z9tif_4FGQgs91A,Diamond Dominican Beauty Salon,"4812 E Busch Blvd, Ste D",Tampa,28.0330687,-82.4068726,4.0,17,a301
ATR36,dV9xoPQnwhj20QmPOMaJYw,Glo Nail Bar,"32733 Eiland Blvd, Ste 104",Wesley Chapel,28.2205089,-82.2470191,3.5,5,a355
ATR36,wklNsFM-tG5mjopYZYyvXQ,Blu Nail Salon,14851 State Rd 52,Hudson,28.3308135215,-82.5703387528,2.5,9,a7
ATR37,YEXdh3eybRPWninCEBtpUA,Regal Nails,12610 N US Hwy 19,Hudson,28.36419,-82.681464,1.5,7,a56
ATR38,fIZaQWxNGe5Zu7eDDddl0w,Perfect Ten Nail Studio,"6393 Dr Martin Luther King Jr St N, Ste 103, Perfect Ten Studio & Spa",St. Petersburg,27.8303651,-82.6457945,5.0,20,a378
ATR38,vBajGjAZKePMX021UVHo_A,DayDreams Day & Med Spa,658 Oakfield Dr,Brandon,27.93509,-82.293247,4.5,75,a7
ATR38,wd-7MEBIsOLVnYaw9BOy1w,Ombre Nails Spa,5719 Gunn Hwy,Tampa,28.0631642,-82.5426435,3.5,5,a33
